
[
    {
      "lat": 56.81319228,
      "lon": 13.9065346,
      "name": "IONITY Ljungby",
      "street": "Ringv\u00e4gen 1",
      "city": "Ljungby",
      "country": "SWE",
      "operator": "IONITY",
      "power": 350.0,
      "hdv": "N1&N2&N3&N3+O4"
    },
    {
      "lat": 52.32609618,
      "lon": 7.43019326,
      "name": "IONITY Salzbergen",
      "street": "Holsterfeld 2",
      "city": "Salzbergen",
      "country": "DEU",
      "operator": "IONITY",
      "power": 350.0,
      "hdv": "N1&N2&N3"
    },
    {
      "lat": 47.01175184,
      "lon": 9.51237144,
      "name": "IONITY Heidiland",
      "street": "Heidiland 1",
      "city": "Maienfeld",
      "country": "CHE",
      "operator": "IONITY",
      "power": 400.0,
      "hdv": "N1"
    },
    {
      "lat": 53.69436545,
      "lon": 10.32462569,
      "name": "IONITY Buddikate Ost",
      "street": "Herbertweg",
      "city": "Todendorf",
      "country": "DEU",
      "operator": "IONITY",
      "power": 350.0,
      "hdv": "N1&N2&N3&N3+O4"
    },
    {
      "lat": 46.99019628,
      "lon": 7.47599006,
      "name": "IONITY Grauholz S\u00fcd",
      "street": "Wolfackerweg 18",
      "city": "Ittigen",
      "country": "CHE",
      "operator": "IONITY",
      "power": 400.0,
      "hdv": "N1"
    },
    {
      "lat": 55.30939548,
      "lon": 10.804939,
      "name": "IONITY Nyborg",
      "street": "Storeb\u00e6ltsvej 1",
      "city": "Nyborg",
      "country": "DNK",
      "operator": "IONITY",
      "power": 350.0,
      "hdv": "N1&N2&N3&N3+O4"
    },
    {
      "lat": 48.20593002,
      "lon": 8.62104511,
      "name": "IONITY Neckarburg West",
      "street": "Autobahn A 81",
      "city": "Dietingen",
      "country": "DEU",
      "operator": "IONITY",
      "power": 350.0,
      "hdv": "N1&N2&N3"
    },
    {
      "lat": 58.02462971,
      "lon": 11.84730137,
      "name": "IONITY Speker\u00f6d",
      "street": "Stora H\u00f6gamotet E6",
      "city": "Stora H\u00f6ga",
      "country": "SWE",
      "operator": "IONITY",
      "power": 350.0,
      "hdv": "N1&N2"
    },
    {
      "lat": 49.64703112,
      "lon": 8.29344351,
      "name": "EnBW Rastst\u00e4tte T&R Wonnegau Ost, Worms, A61",
      "street": "BAB61, Autobahnrastst\u00e4tte Wonnegau Ost",
      "city": "Worms",
      "country": "DEU",
      "operator": "EnBW",
      "power": 300.0,
      "hdv": "N1&N2"
    },
    {
      "lat": 50.266916,
      "lon": 7.22476983,
      "name": "EnBW Rastst\u00e4tte T&R Elztal Nord, Kehring, A48",
      "street": "A48, Rastst\u00e4tte Elztal Nord",
      "city": "Kehrig",
      "country": "DEU",
      "operator": "EnBW",
      "power": 300.0,
      "hdv": "N1&N2"
    },
    {
      "lat": 50.43910619,
      "lon": 7.6474355,
      "name": "EnBW Rastst\u00e4tte T&R Grenzau, H\u00f6hr-Grenzhausen, A48",
      "street": "BAB48, Autobahnrastst\u00e4tte Grenzau S\u00fcd",
      "city": "H\u00f6hr-Grenzhausen",
      "country": "DEU",
      "operator": "EnBW",
      "power": 300.0,
      "hdv": "N1&N2&N3"
    },
    {
      "lat": 49.52748257,
      "lon": 8.07255162,
      "name": "EnBW Rastst\u00e4tte T&R Pfalz, Wattenheim, A6",
      "street": "BAB6, Autobahnrastst\u00e4tte Pfalz",
      "city": "Wattenheim",
      "country": "DEU",
      "operator": "EnBW",
      "power": 300.0,
      "hdv": "N1&N2"
    },
    {
      "lat": 49.89263672,
      "lon": 8.54390697,
      "name": "EnBW Rastst\u00e4tte T&R B\u00fcttelborn S\u00fcd, A67",
      "street": "BAB67, Autobahnrastst\u00e4tte B\u00fcttelborn S\u00fcd",
      "city": "B\u00fcttelborn",
      "country": "DEU",
      "operator": "EnBW",
      "power": 300.0,
      "hdv": "N1&N2"
    },
    {
      "lat": 49.42279888,
      "lon": 11.68790097,
      "name": "EnBW Rastst\u00e4tte T&R Oberpf\u00e4lzer Alb S\u00fcd, Illschwang, A6",
      "street": "Autobahnrastst\u00e4tte Oberpf\u00e4lzer Alb S\u00fcd",
      "city": "Illschwang",
      "country": "DEU",
      "operator": "EnBW",
      "power": 300.0,
      "hdv": "N1&N2"
    },
    {
      "lat": 51.54840149,
      "lon": 8.13222029,
      "name": "EnBW Rastst\u00e4tte T&R Soester B\u00f6rde Nord, Soest, A44",
      "street": "Autobahnrastst\u00e4tte Soester B\u00f6rde Nord",
      "city": "Soest",
      "country": "DEU",
      "operator": "EnBW",
      "power": 300.0,
      "hdv": "N1&N2"
    },
    {
      "lat": 58.37230139,
      "lon": 15.29424831,
      "name": "IONITY Mantorp",
      "street": "Uljebergsv\u00e4gen 2",
      "city": "Mantorp",
      "country": "SWE",
      "operator": "IONITY",
      "power": 350.0,
      "hdv": "N1&N2"
    },
    {
      "lat": 50.31660769,
      "lon": 7.49881288,
      "name": "EnBW Rastst\u00e4tte T&R Moseltal Ost, Winningen, A61",
      "street": "BAB61,Autobahnrastst\u00e4tte Moseltal Ost",
      "city": "Winningen",
      "country": "DEU",
      "operator": "EnBW",
      "power": 300.0,
      "hdv": "N1&N2"
    },
    {
      "lat": 49.64429738,
      "lon": 8.55409916,
      "name": "EnBW Rastst\u00e4tte T&R Lorsch Ost, A67",
      "street": "BAB67, Autobahnrastst\u00e4tte Lorsch Ost",
      "city": "Lorsch",
      "country": "DEU",
      "operator": "EnBW",
      "power": 300.0,
      "hdv": "N1&N2"
    },
    {
      "lat": 49.81246755,
      "lon": 8.57689496,
      "name": "EnBW Rastst\u00e4tte T&R Pfungstadt West, A67",
      "street": "BAB67, Autobahnrastst\u00e4tte Pfungstadt West",
      "city": "Pfungstadt",
      "country": "DEU",
      "operator": "EnBW",
      "power": 300.0,
      "hdv": "N1&N2"
    },
    {
      "lat": 49.81202911,
      "lon": 8.57926033,
      "name": "EnBW Rastst\u00e4tte T&R Pfungstadt Ost, A67",
      "street": "BAB67, Autobahnrastst\u00e4tte Pfungstadt Ost",
      "city": "Pfungstadt",
      "country": "DEU",
      "operator": "EnBW",
      "power": 300.0,
      "hdv": "N1&N2"
    },
    {
      "lat": 51.54716625,
      "lon": 8.13346553,
      "name": "EnBW Rastst\u00e4tte T&R Soester B\u00f6rde S\u00fcd, Soest, A44",
      "street": "Kirchweg 14",
      "city": "Soest",
      "country": "DEU",
      "operator": "EnBW",
      "power": 300.0,
      "hdv": "N1&N2"
    },
    {
      "lat": 53.04489898,
      "lon": 8.22011518,
      "name": "EnBW Rastst\u00e4tte T&R Huntetal West, Wardenburg, A29",
      "street": "A29 Rastst\u00e4tte Huntetal West",
      "city": "Wardenburg",
      "country": "DEU",
      "operator": "EnBW",
      "power": 300.0,
      "hdv": "N1&N2"
    },
    {
      "lat": 53.05589098,
      "lon": 8.50130137,
      "name": "EnBW Rastst\u00e4tte T&R Hasbruch Nord, Ganderkesee, A28",
      "street": "A28 Rastst\u00e4tte Hasbruch Nord",
      "city": "Ganderkesee",
      "country": "DEU",
      "operator": "EnBW",
      "power": 300.0,
      "hdv": "N1&N2"
    },
    {
      "lat": 52.33312421,
      "lon": 9.86554661,
      "name": "EnBW Rastst\u00e4tte T&R Hannover-W\u00fclferode Ost, A7",
      "street": "A7 W\u00fclferode Ost",
      "city": "Hannover",
      "country": "DEU",
      "operator": "EnBW",
      "power": 300.0,
      "hdv": "N1&N2"
    },
    {
      "lat": 47.99720829,
      "lon": 11.67596003,
      "name": "EnBW Rastst\u00e4tte T&R Hofoldinger Forst S\u00fcd, Brunnthal, A8",
      "street": "A8, Hofoldinger Forst S\u00fcd",
      "city": "Brunnthal",
      "country": "DEU",
      "operator": "EnBW",
      "power": 300.0,
      "hdv": "N1&N2&N3"
    },
    {
      "lat": 51.63572481,
      "lon": 6.74492899,
      "name": "EnBW Rastst\u00e4tte T&R H\u00fcnxe West, A3",
      "street": "A3, Autobahnrastst\u00e4tte H\u00fcnxe West",
      "city": "H\u00fcnxe",
      "country": "DEU",
      "operator": "EnBW",
      "power": 300.0,
      "hdv": "N1&N2"
    },
    {
      "lat": 48.41348157,
      "lon": 10.42952059,
      "name": "EnBW Rastst\u00e4tte T&R Burgauer See Nord, Burgau, A8",
      "street": "A8, Rastst\u00e4tte Burgauer See Nord",
      "city": "Jettingen-Scheppach",
      "country": "DEU",
      "operator": "EnBW",
      "power": 300.0,
      "hdv": "N1&N2"
    },
    {
      "lat": 50.86062571,
      "lon": 12.30801708,
      "name": "IONITY Altenburger Land Nord",
      "street": "Rastst\u00e4tte Altenburger Land Nord",
      "city": "Schm\u00f6lln",
      "country": "DEU",
      "operator": "IONITY",
      "power": 350.0,
      "hdv": "N1&N2&N3"
    },
    {
      "lat": 41.4205116,
      "lon": 2.00162369,
      "name": "IONITY Palleja",
      "street": "Ronda de Santa Eul\u00e0lia 31",
      "city": "Pallej\u00e1\u200b",
      "country": "ESP",
      "operator": "IONITY",
      "power": 350.0,
      "hdv": "N1&N2&N3&N3+O4"
    },
    {
      "lat": 48.38756965,
      "lon": 10.03312019,
      "name": "EnBW Shell Neu-Ulm",
      "street": "Europastra\u00dfe 44",
      "city": "Neu-Ulm",
      "country": "DEU",
      "operator": "EnBW",
      "power": 300.0,
      "hdv": "N1&N2"
    },
    {
      "lat": 59.92105914,
      "lon": 10.67690197,
      "name": "IONITY Sk\u00f8yen",
      "street": "Karenslyst all\u00e9 58",
      "city": "Oslo",
      "country": "NOR",
      "operator": "IONITY",
      "power": 400.0,
      "hdv": "N1"
    },
    {
      "lat": 57.16433242,
      "lon": 14.07606213,
      "name": "IONITY V\u00e4rnamo",
      "street": "H\u00f6galund 2",
      "city": "V\u00e4rnamo",
      "country": "SWE",
      "operator": "IONITY",
      "power": 350.0,
      "hdv": "N1&N2&N3&N3+O4"
    },
    {
      "lat": 53.51544153,
      "lon": 10.08194801,
      "name": "EnBW Shell Hamburg, Andreas Meyer Str.",
      "street": "Andreas-Meyer-Stra\u00dfe 44",
      "city": "Hamburg",
      "country": "DEU",
      "operator": "EnBW",
      "power": 300.0,
      "hdv": "N1&N2"
    },
    {
      "lat": 57.1683194,
      "lon": 12.27716123,
      "name": "IONITY Varberg",
      "street": "Gunnestorpsv\u00e4gen 2",
      "city": "Varberg",
      "country": "SWE",
      "operator": "IONITY",
      "power": 350.0,
      "hdv": "N1&N2&N3&N3+O4"
    },
    {
      "lat": 53.71796805,
      "lon": 9.75960167,
      "name": "Aral pulse Lise-Meitner-Allee 3",
      "street": "Lise-Meitner-Allee 3",
      "city": "Tornesch",
      "country": "DEU",
      "operator": "Aral Pulse",
      "power": 300.0,
      "hdv": "N1&N2&N3&N3+O4"
    },
    {
      "lat": 50.38222331,
      "lon": 7.26951158,
      "name": "EnBW Shell Mendig",
      "street": "Ludwig-Erhard-Stra\u00dfe 2",
      "city": "Mendig",
      "country": "DEU",
      "operator": "EnBW",
      "power": 300.0,
      "hdv": "N1&N2"
    },
    {
      "lat": 37.5757188,
      "lon": -1.80135942,
      "name": "IONITY Puerto Lumbreras",
      "street": "Autov\u00eda del Mediterr\u00e1neo 580",
      "city": "Puerto Lumbreras",
      "country": "ESP",
      "operator": "IONITY",
      "power": 350.0,
      "hdv": "N1&N2&N3&N3+O4"
    },
    {
      "lat": 57.81280089,
      "lon": 13.41830037,
      "name": "IONITY Ulricehamn",
      "street": "Vist Kyrkv\u00e4g 3",
      "city": "Ulricehamn",
      "country": "SWE",
      "operator": "IONITY",
      "power": 350.0,
      "hdv": "N1&N2&N3&N3+O4"
    },
    {
      "lat": 50.6476187,
      "lon": 7.33456763,
      "name": "IONITY Bad Honnef",
      "street": "Windhagener Weg",
      "city": "Bad Honnef",
      "country": "DEU",
      "operator": "IONITY",
      "power": 350.0,
      "hdv": "N1&N2&N3"
    },
    {
      "lat": 48.17735144,
      "lon": 12.82526733,
      "name": "EnBW OMV Burghausen, Burgkirchener Str. 14",
      "street": "Burgkirchener Stra\u00dfe 14",
      "city": "Burghausen",
      "country": "DEU",
      "operator": "EnBW",
      "power": 300.0,
      "hdv": "N1&N2"
    },
    {
      "lat": 49.7781122,
      "lon": 10.06571978,
      "name": "Aral pulse Mainfrankenpark 24",
      "street": "Mainfrankenpark 24",
      "city": "Dettelbach",
      "country": "DEU",
      "operator": "Aral Pulse",
      "power": 300.0,
      "hdv": "N1&N2&N3&N3+O4"
    },
    {
      "lat": 51.92555264,
      "lon": 4.4777338,
      "name": "Shell Recharge Schiekade 988",
      "street": "Schiekade 988",
      "city": "Rotterdam",
      "country": "NLD",
      "operator": "Shell Recharge",
      "power": 300.0,
      "hdv": "N1&N2&N3"
    },
    {
      "lat": 50.76318427,
      "lon": 8.15571078,
      "name": "EnBW Shell Haiger",
      "street": "Herrenrain 1",
      "city": "Haiger",
      "country": "DEU",
      "operator": "EnBW",
      "power": 300.0,
      "hdv": "N1&N2"
    },
    {
      "lat": 51.59359668,
      "lon": 8.48742049,
      "name": "EnBW Shell Geseke",
      "street": "Rosengartenweg",
      "city": "Geseke",
      "country": "DEU",
      "operator": "EnBW",
      "power": 300.0,
      "hdv": "N1&N2"
    },
    {
      "lat": 52.62403112,
      "lon": 6.20747954,
      "name": "Shell Recharge Rijksweg A28/E232 OZ",
      "street": "A28",
      "city": "Staphorst",
      "country": "NLD",
      "operator": "Shell Recharge",
      "power": 300.0,
      "hdv": "N1&N2&N3"
    },
    {
      "lat": 50.44207016,
      "lon": 7.66574281,
      "name": "EnBW Shell H\u00f6hr-Grenzhausen",
      "street": "Westerwaldstra\u00dfe 12",
      "city": "H\u00f6hr-Grenzhausen",
      "country": "DEU",
      "operator": "EnBW",
      "power": 300.0,
      "hdv": "N1&N2"
    },
    {
      "lat": 49.81973782,
      "lon": 11.00069076,
      "name": "EnBW OMV Hirschaid",
      "street": "Industriestra\u00dfe 11",
      "city": "Hirschaid",
      "country": "DEU",
      "operator": "EnBW",
      "power": 300.0,
      "hdv": "N1&N2"
    },
    {
      "lat": 53.10047956,
      "lon": 8.81457764,
      "name": "EnBW Shell Bremen, Hemmstr.",
      "street": "Hemmstra\u00dfe 351",
      "city": "Bremen",
      "country": "DEU",
      "operator": "EnBW",
      "power": 300.0,
      "hdv": "N1&N2"
    },
    {
      "lat": 48.77230639,
      "lon": 11.45192499,
      "name": "EnBW Shell Ingolstadt, Goethestr.",
      "street": "Goethestra\u00dfe 145",
      "city": "Ingolstadt",
      "country": "DEU",
      "operator": "EnBW",
      "power": 300.0,
      "hdv": "N1&N2"
    },
    {
      "lat": 48.70299508,
      "lon": 9.00509116,
      "name": "EnBW Shell Sindelfingen, Neckarstr.",
      "street": "Neckarstra\u00dfe 10",
      "city": "Sindelfingen",
      "country": "DEU",
      "operator": "EnBW",
      "power": 300.0,
      "hdv": "N1&N2"
    },
    {
      "lat": 50.04757066,
      "lon": 9.0472333,
      "name": "EnBW Shell Alzenau, Industriegebiet S\u00fcd",
      "street": "Industriegebiet S\u00fcd B 5",
      "city": "Alzenau",
      "country": "DEU",
      "operator": "EnBW",
      "power": 300.0,
      "hdv": "N1&N2"
    },
    {
      "lat": 54.81909618,
      "lon": 23.85751558,
      "name": "IONITY Garliava",
      "street": "Baltijos gatv\u0117 1",
      "city": "Al\u0161\u0117nai",
      "country": "LTU",
      "operator": "IONITY",
      "power": 350.0,
      "hdv": "N1&N2&N3&N3+O4"
    },
    {
      "lat": 50.54565174,
      "lon": 8.52952859,
      "name": "EnBW Shell Wetzlar",
      "street": "Frankfurter Stra\u00dfe 95",
      "city": "Wetzlar",
      "country": "DEU",
      "operator": "EnBW",
      "power": 300.0,
      "hdv": "N1&N2"
    },
    {
      "lat": 52.50032841,
      "lon": 13.73502709,
      "name": "EnBW Shell Fredersdorf-Vogelsdorf",
      "street": "Frankfurter Chaussee 37",
      "city": "Fredersdorf-Vogelsdorf",
      "country": "DEU",
      "operator": "EnBW",
      "power": 300.0,
      "hdv": "N1&N2"
    },
    {
      "lat": 51.45222531,
      "lon": 7.32396403,
      "name": "EnBW Shell Witten",
      "street": "Bochumer Stra\u00dfe 2",
      "city": "Witten",
      "country": "DEU",
      "operator": "EnBW",
      "power": 300.0,
      "hdv": "N1&N2"
    },
    {
      "lat": 53.01192301,
      "lon": 8.70452459,
      "name": "EnBW Shell Stuhr",
      "street": "Moordeicher Landstra\u00dfe 86",
      "city": "Stuhr",
      "country": "DEU",
      "operator": "EnBW",
      "power": 300.0,
      "hdv": "N1&N2"
    },
    {
      "lat": 49.00124733,
      "lon": 12.19732139,
      "name": "EnBW Shell Barbing",
      "street": "Neutraublinger Stra\u00dfe 12",
      "city": "Barbing",
      "country": "DEU",
      "operator": "EnBW",
      "power": 300.0,
      "hdv": "N1&N2"
    },
    {
      "lat": 48.97284293,
      "lon": 12.06534841,
      "name": "EnBW OMV Pentling",
      "street": "Ammerholz 3",
      "city": "Pentling",
      "country": "DEU",
      "operator": "EnBW",
      "power": 300.0,
      "hdv": "N1&N2"
    },
    {
      "lat": 50.44008517,
      "lon": 7.83038245,
      "name": "Aral pulse Alleestra\u00dfe 18",
      "street": "Alleestra\u00dfe 18",
      "city": "Montabaur",
      "country": "DEU",
      "operator": "Aral Pulse",
      "power": 300.0,
      "hdv": "N1&N2"
    },
    {
      "lat": 50.32996605,
      "lon": 8.9344335,
      "name": "EnBW Shell Florstadt, In der Grobach",
      "street": "In der Grobach 1",
      "city": "Florstadt",
      "country": "DEU",
      "operator": "EnBW",
      "power": 300.0,
      "hdv": "N1&N2"
    },
    {
      "lat": 48.81200909,
      "lon": 8.92209216,
      "name": "EnBW 71277 Rutesheim, Pforzheimer Str. 150",
      "street": "Pforzheimer Stra\u00dfe 151",
      "city": "Rutesheim",
      "country": "DEU",
      "operator": "EnBW",
      "power": 300.0,
      "hdv": "N1&N2"
    },
    {
      "lat": 50.45436245,
      "lon": 7.87320427,
      "name": "EnBW Rastst\u00e4tte T&R Heiligenroth, A3",
      "street": "BAB3, Rastst\u00e4tte Heiligenroth",
      "city": "Heiligenroth",
      "country": "DEU",
      "operator": "EnBW",
      "power": 300.0,
      "hdv": "N1&N2"
    },
    {
      "lat": 51.99607116,
      "lon": 8.59518325,
      "name": "EnBW Shell Bielefeld, Detmolder Str.",
      "street": "Detmolder Stra\u00dfe 485",
      "city": "Bielefeld",
      "country": "DEU",
      "operator": "EnBW",
      "power": 300.0,
      "hdv": "N1&N2"
    },
    {
      "lat": 54.99746355,
      "lon": 12.00091398,
      "name": "IONITY Vordingborg",
      "street": "H\u00f8jgaardsvej",
      "city": "Vordingborg",
      "country": "DNK",
      "operator": "IONITY",
      "power": 350.0,
      "hdv": "N1&N2&N3&N3+O4"
    },
    {
      "lat": 50.01354563,
      "lon": 8.34562469,
      "name": "EnBW Shell Hochheim",
      "street": "K\u00f6nigsberger Ring 7",
      "city": "Hochheim am Main",
      "country": "DEU",
      "operator": "EnBW",
      "power": 300.0,
      "hdv": "N1&N2"
    },
    {
      "lat": 51.76086495,
      "lon": 14.34809916,
      "name": "EnBW Shell Cottbus, Muskauer Platz",
      "street": "Muskauer Platz 3",
      "city": "Cottbus",
      "country": "DEU",
      "operator": "EnBW",
      "power": 300.0,
      "hdv": "N1&N2"
    },
    {
      "lat": 51.18354763,
      "lon": 6.67864171,
      "name": "EnBW Shell Neuss, J\u00fclicher Landstr.",
      "street": "J\u00fclicher Landstra\u00dfe 115",
      "city": "Neuss",
      "country": "DEU",
      "operator": "EnBW",
      "power": 300.0,
      "hdv": "N1&N2"
    },
    {
      "lat": 49.00378987,
      "lon": 8.44746853,
      "name": "EnBW Durlach Center Karlsruhe",
      "street": "Durlacher Allee 111",
      "city": "Karlsruhe",
      "country": "DEU",
      "operator": "EnBW",
      "power": 300.0,
      "hdv": "N1&N2"
    },
    {
      "lat": 51.29013722,
      "lon": 6.80438245,
      "name": "EnBW Rasthof T&R Hohenstein, Ratingen, A52",
      "street": "Broichhofstra\u00dfe 8",
      "city": "Ratingen",
      "country": "DEU",
      "operator": "EnBW",
      "power": 300.0,
      "hdv": "N1&N2"
    },
    {
      "lat": 49.99736845,
      "lon": 8.42420027,
      "name": "EnBW Shell R\u00fcsselsheim, Rugbyring",
      "street": "Rugbyring 98",
      "city": "R\u00fcsselsheim am Main",
      "country": "DEU",
      "operator": "EnBW",
      "power": 300.0,
      "hdv": "N1&N2"
    },
    {
      "lat": 53.05438647,
      "lon": 8.50156063,
      "name": "EnBW Rastst\u00e4tte T&R Hasbruch S\u00fcd, Ganderkesee, A28",
      "street": "A28 Rastst\u00e4tte Hasbruch S\u00fcd",
      "city": "Ganderkesee",
      "country": "DEU",
      "operator": "EnBW",
      "power": 300.0,
      "hdv": "N1&N2"
    },
    {
      "lat": 48.15826735,
      "lon": 11.33486793,
      "name": "EnBW Shell Puchheim",
      "street": "Eichenauer Stra\u00dfe 35",
      "city": "Puchheim",
      "country": "DEU",
      "operator": "EnBW",
      "power": 300.0,
      "hdv": "N1&N2"
    },
    {
      "lat": 48.25027336,
      "lon": 7.765931,
      "name": "EnBW OMV Ringsheim",
      "street": "Herbolzheimer Stra\u00dfe 1",
      "city": "Ringsheim",
      "country": "DEU",
      "operator": "EnBW",
      "power": 300.0,
      "hdv": "N1&N2"
    },
    {
      "lat": 51.59748357,
      "lon": 8.5155366,
      "name": "Aral pulse B\u00fcrener Stra\u00dfe 155",
      "street": "B\u00fcrener Stra\u00dfe 155",
      "city": "Geseke",
      "country": "DEU",
      "operator": "Aral Pulse",
      "power": 300.0,
      "hdv": "N1&N2"
    },
    {
      "lat": 52.49153162,
      "lon": 8.07848555,
      "name": "Aral pulse H\u00f6rster Heide 2",
      "street": "H\u00f6rster Heide 2",
      "city": "Neuenkirchen-V\u00f6rden",
      "country": "DEU",
      "operator": "Aral Pulse",
      "power": 300.0,
      "hdv": "N1&N2"
    },
    {
      "lat": 51.73105214,
      "lon": 9.97312119,
      "name": "Aral pulse Westerlange 2",
      "street": "Westerlange 2",
      "city": "Northeim",
      "country": "DEU",
      "operator": "Aral Pulse",
      "power": 300.0,
      "hdv": "N1&N2"
    },
    {
      "lat": 61.57529738,
      "lon": 6.48365872,
      "name": "IONITY Skei",
      "street": "J\u00f8lstravegen 3261",
      "city": "Skei",
      "country": "NOR",
      "operator": "IONITY",
      "power": 350.0,
      "hdv": "N1&N2&N3"
    },
    {
      "lat": 50.46819928,
      "lon": 8.13810517,
      "name": "Aral pulse An der B 49 S\u00fcdseite",
      "street": "B49",
      "city": "Beselich",
      "country": "DEU",
      "operator": "Aral Pulse",
      "power": 300.0,
      "hdv": "N1&N2"
    },
    {
      "lat": 51.46243152,
      "lon": 6.93029836,
      "name": "EnBW HELLWEG Essen, Aktienstr.",
      "street": "Aktienstra\u00dfe 10",
      "city": "Essen",
      "country": "DEU",
      "operator": "EnBW",
      "power": 300.0,
      "hdv": "N1&N2"
    },
    {
      "lat": 51.4761142,
      "lon": 7.15320527,
      "name": "EnBW Shell Bochum, Vietingstr.",
      "street": "Vietingstra\u00dfe 50",
      "city": "Bochum",
      "country": "DEU",
      "operator": "EnBW",
      "power": 300.0,
      "hdv": "N1&N2"
    },
    {
      "lat": 50.91226935,
      "lon": 6.81985992,
      "name": "EnBW Shell Frechen, Alfred-Nobel-Str.",
      "street": "Alfred-Nobel-Stra\u00dfe 46",
      "city": "Frechen",
      "country": "DEU",
      "operator": "EnBW",
      "power": 300.0,
      "hdv": "N1&N2"
    },
    {
      "lat": 50.18003112,
      "lon": 10.07832039,
      "name": "EnBW TRIGEMA Bad Kissingen",
      "street": "Rudolf-Diesel-Stra\u00dfe 21",
      "city": "Bad Kissingen",
      "country": "DEU",
      "operator": "EnBW",
      "power": 300.0,
      "hdv": "N1&N2"
    },
    {
      "lat": 53.58278787,
      "lon": 7.2256377,
      "name": "EnBW TRIGEMA Norden",
      "street": "Bahnhofstra\u00dfe 41",
      "city": "Norden",
      "country": "DEU",
      "operator": "EnBW",
      "power": 300.0,
      "hdv": "N1&N2"
    },
    {
      "lat": 52.50682491,
      "lon": 13.56589096,
      "name": "EnBW HELLWEG Berlin, Alt-Biesdorf",
      "street": "Alt-Biesdorf 38",
      "city": "Berlin",
      "country": "DEU",
      "operator": "EnBW",
      "power": 300.0,
      "hdv": "N1&N2"
    },
    {
      "lat": 51.5314125,
      "lon": 7.4407378,
      "name": "Aral pulse Sch\u00e4ferstra\u00dfe 51",
      "street": "Sch\u00e4ferstra\u00dfe 51",
      "city": "Dortmund",
      "country": "DEU",
      "operator": "Aral Pulse",
      "power": 300.0,
      "hdv": "N1&N2&N3&N3+O4"
    },
    {
      "lat": 51.07030739,
      "lon": 6.3026377,
      "name": "EnBW Shell Erkelenz, Paul-R\u00fcttchen-Str.",
      "street": "Paul-R\u00fcttchen-Stra\u00dfe 54",
      "city": "Erkelenz",
      "country": "DEU",
      "operator": "EnBW",
      "power": 300.0,
      "hdv": "N1&N2"
    },
    {
      "lat": 51.4902103,
      "lon": 7.37438845,
      "name": "EnBW HELLWEG Dortmund, Borussiastr.",
      "street": "Borussiastra\u00dfe 88",
      "city": "Dortmund",
      "country": "DEU",
      "operator": "EnBW",
      "power": 300.0,
      "hdv": "N1&N2"
    },
    {
      "lat": 48.17782791,
      "lon": 11.55690497,
      "name": "BMW Welt High-Power-Charging",
      "street": "Am Olympiapark 1",
      "city": "M\u00fcnchen",
      "country": "DEU",
      "operator": "E.ON Drive",
      "power": 400.0,
      "hdv": ""
    },
    {
      "lat": 50.79739848,
      "lon": 6.47647154,
      "name": "EnBW Shell D\u00fcren, Aachener Str.",
      "street": "Aachener Stra\u00dfe 44",
      "city": "D\u00fcren",
      "country": "DEU",
      "operator": "EnBW",
      "power": 300.0,
      "hdv": "N1&N2"
    },
    {
      "lat": 53.5285136,
      "lon": 8.0886397,
      "name": "EnBW Shell Wilhelmshaven",
      "street": "Bismarckstra\u00dfe 261",
      "city": "Wilhelmshaven",
      "country": "DEU",
      "operator": "EnBW",
      "power": 300.0,
      "hdv": "N1&N2"
    },
    {
      "lat": 48.75844053,
      "lon": 11.83572779,
      "name": "EnBW Shell Siegenburg",
      "street": "Da\u00dffeld 22",
      "city": "Siegenburg",
      "country": "DEU",
      "operator": "EnBW",
      "power": 300.0,
      "hdv": "N1&N2"
    },
    {
      "lat": 51.4714105,
      "lon": 11.90550157,
      "name": "Aral pulse Eislebener Chaussee 200",
      "street": "Eislebener Chaussee 200",
      "city": "Halle (Saale)",
      "country": "DEU",
      "operator": "Aral Pulse",
      "power": 300.0,
      "hdv": "N1&N2"
    },
    {
      "lat": 52.31146355,
      "lon": 10.8234325,
      "name": "Aral pulse Am M\u00fchlenhop 1",
      "street": "Am M\u00fchlenhop 1",
      "city": "K\u00f6nigslutter am Elm",
      "country": "DEU",
      "operator": "Aral Pulse",
      "power": 300.0,
      "hdv": "N1&N2"
    },
    {
      "lat": 49.65493302,
      "lon": 8.35977084,
      "name": "Aral pulse Mainzer Stra\u00dfe 140",
      "street": "Mainzer Stra\u00dfe 140",
      "city": "Worms",
      "country": "DEU",
      "operator": "Aral Pulse",
      "power": 300.0,
      "hdv": "N1&N2&N3&N3+O4"
    },
    {
      "lat": 51.49190999,
      "lon": 6.83802609,
      "name": "EnBW HELLWEG Oberhausen",
      "street": "Lindnerstra\u00dfe 137",
      "city": "Oberhausen",
      "country": "DEU",
      "operator": "EnBW",
      "power": 300.0,
      "hdv": "N1&N2"
    },
    {
      "lat": 49.00098407,
      "lon": 12.36547054,
      "name": "EnBW 93086 W\u00f6rth an der Donau, A3",
      "street": "Gewerbepark B 5",
      "city": "W\u00f6rth an der Donau",
      "country": "DEU",
      "operator": "EnBW",
      "power": 300.0,
      "hdv": "N1&N2&N3"
    },
    {
      "lat": 53.88918327,
      "lon": 18.63078185,
      "name": "IONITY MOP Olsze (dir. \u0141\u00f3d\u017a)",
      "street": "MOP Olsze, A1 kier. Lodz",
      "city": "Morzeszczyn",
      "country": "POL",
      "operator": "IONITY",
      "power": 350.0,
      "hdv": "N1&N2&N3&N3+O4"
    },
    {
      "lat": 50.12780089,
      "lon": 8.9170301,
      "name": "Aral pulse Br\u00fcder-Grimm-Stra\u00dfe 22",
      "street": "Br\u00fcder-Grimm-Stra\u00dfe 22",
      "city": "Hanau",
      "country": "DEU",
      "operator": "Aral Pulse",
      "power": 400.0,
      "hdv": "N1&N2"
    },
    {
      "lat": 58.92086195,
      "lon": 24.4572343,
      "name": "IONITY M\u00e4rjamaa",
      "street": "M\u00e4rjamaa-Koluvere",
      "city": "M\u00e4rjamaa",
      "country": "EST",
      "operator": "IONITY",
      "power": 350.0,
      "hdv": "N1&N2&N3&N3+O4"
    },
    {
      "lat": 48.92095104,
      "lon": 9.14932939,
      "name": "EnBW Breuningerland Ludwigsburg",
      "street": "Heinkelstra\u00dfe 1",
      "city": "Ludwigsburg",
      "country": "DEU",
      "operator": "EnBW",
      "power": 300.0,
      "hdv": "N1&N2"
    },
    {
      "lat": 50.14758367,
      "lon": 8.90127134,
      "name": "Aral pulse Maintaler Stra\u00dfe 20",
      "street": "Maintaler Stra\u00dfe 20",
      "city": "Hanau",
      "country": "DEU",
      "operator": "Aral Pulse",
      "power": 400.0,
      "hdv": "N1"
    },
    {
      "lat": 50.50467076,
      "lon": 14.05160067,
      "name": "E.ON Lovosice",
      "street": "Si\u0159ejovick\u00e1 233/65",
      "city": "Lovosice",
      "country": "CZE",
      "operator": "E.ON Drive",
      "power": 400.0,
      "hdv": "N1"
    },
    {
      "lat": 50.92825734,
      "lon": 8.00929736,
      "name": "EnBW HELLWEG Kreuztal",
      "street": "Siegener Stra\u00dfe 210",
      "city": "Kreuztal",
      "country": "DEU",
      "operator": "EnBW",
      "power": 300.0,
      "hdv": "N1&N2"
    },
    {
      "lat": 48.07586095,
      "lon": 8.7341302,
      "name": "EnBW dm Spaichingen",
      "street": "Europastra\u00dfe 2",
      "city": "Spaichingen",
      "country": "DEU",
      "operator": "EnBW",
      "power": 300.0,
      "hdv": "N1&N2"
    },
    {
      "lat": 51.8178159,
      "lon": 6.44398605,
      "name": "Aral pulse Dekkers Waide 1",
      "street": "Dekkers Waide 1",
      "city": "Isselburg",
      "country": "DEU",
      "operator": "Aral Pulse",
      "power": 300.0,
      "hdv": "N1&N2"
    },
    {
      "lat": 50.81493102,
      "lon": 12.95420127,
      "name": "EnBW HELLWEG Chemnitz, Zschopauer Str.",
      "street": "Zschopauer Stra\u00dfe 273",
      "city": "Chemnitz",
      "country": "DEU",
      "operator": "EnBW",
      "power": 300.0,
      "hdv": "N1&N2"
    },
    {
      "lat": 52.17516825,
      "lon": 11.62864371,
      "name": "Aral pulse Ziolkowskistra\u00dfe 14",
      "street": "Ziolkowskistra\u00dfe 14",
      "city": "Magdeburg",
      "country": "DEU",
      "operator": "Aral Pulse",
      "power": 300.0,
      "hdv": "N1&N2"
    },
    {
      "lat": 53.91063272,
      "lon": 11.75790797,
      "name": "Aral pulse A20 Fuchsberg",
      "street": "Am Fuchsberg",
      "city": "Glasin",
      "country": "DEU",
      "operator": "Aral Pulse",
      "power": 300.0,
      "hdv": "N1&N2"
    },
    {
      "lat": 49.20516125,
      "lon": 9.68081688,
      "name": "EnBW 74635 Hohenlohe / Kupferzell",
      "street": "G\u00fcnther-Ziehl-Stra\u00dfe 2",
      "city": "Kupferzell",
      "country": "DEU",
      "operator": "EnBW",
      "power": 300.0,
      "hdv": "N1&N2"
    },
    {
      "lat": 49.27226635,
      "lon": 8.33898805,
      "name": "Aral pulse Im breiten Pfuhl 5",
      "street": "Im Breiten Pfuhl 5",
      "city": "Schwegenheim",
      "country": "DEU",
      "operator": "Aral Pulse",
      "power": 300.0,
      "hdv": "N1&N2&N3&N3+O4"
    },
    {
      "lat": 52.2892173,
      "lon": 8.0375356,
      "name": "EnBW HELLWEG Osnabr\u00fcck",
      "street": "Hansastra\u00dfe 81",
      "city": "Osnabr\u00fcck",
      "country": "DEU",
      "operator": "EnBW",
      "power": 300.0,
      "hdv": "N1&N2"
    },
    {
      "lat": 52.32923432,
      "lon": 9.8123384,
      "name": "Aral pulse Messeschnellweg",
      "street": "Messeschnellweg",
      "city": "Hannover",
      "country": "DEU",
      "operator": "Aral Pulse",
      "power": 300.0,
      "hdv": "N1&N2"
    },
    {
      "lat": 51.56715924,
      "lon": 7.67435442,
      "name": "EnBW 59174 Kamen, Kamen Karree 12",
      "street": "Kamen Karree 12",
      "city": "Kamen",
      "country": "DEU",
      "operator": "EnBW",
      "power": 300.0,
      "hdv": "N1&N2"
    },
    {
      "lat": 48.85973082,
      "lon": 8.24087794,
      "name": "EnBW MEGA M\u00f6bel Rastatt",
      "street": "Im Baisert 2",
      "city": "Rastatt",
      "country": "DEU",
      "operator": "EnBW",
      "power": 400.0,
      "hdv": "N1"
    },
    {
      "lat": 50.73825534,
      "lon": 9.24631938,
      "name": "EnBW Burger King Alsfeld",
      "street": "Dirsr\u00f6der Feld 2",
      "city": "Alsfeld",
      "country": "DEU",
      "operator": "EnBW",
      "power": 300.0,
      "hdv": "N1&N2"
    },
    {
      "lat": 51.38562971,
      "lon": 11.87942849,
      "name": "EnBW Shell Bad Lauchst\u00e4dt",
      "street": "Merseburger Landstra\u00dfe 59",
      "city": "Bad Lauchst\u00e4dt",
      "country": "DEU",
      "operator": "EnBW",
      "power": 300.0,
      "hdv": "N1&N2"
    },
    {
      "lat": 49.62656865,
      "lon": 10.92318825,
      "name": "EnBW 91093 He\u00dfdorf, Im Gewerbepark 19, Erlangen West",
      "street": "Im Gewerbepark 19",
      "city": "He\u00dfdorf",
      "country": "DEU",
      "operator": "EnBW",
      "power": 300.0,
      "hdv": "N1&N2&N3"
    },
    {
      "lat": 49.64363072,
      "lon": 8.62571578,
      "name": "Aral pulse Lorscher Stra\u00dfe 53",
      "street": "Lorscher Stra\u00dfe 53",
      "city": "Heppenheim (Bergstra\u00dfe)",
      "country": "DEU",
      "operator": "Aral Pulse",
      "power": 300.0,
      "hdv": "N1&N2"
    },
    {
      "lat": 49.14362771,
      "lon": 9.30884791,
      "name": "EnBW 74248 Weinsberg-Ellhofen, A81",
      "street": "Am Autobahnkreuz 2",
      "city": "Ellhofen",
      "country": "DEU",
      "operator": "EnBW",
      "power": 300.0,
      "hdv": "N1&N2"
    },
    {
      "lat": 48.02616525,
      "lon": 10.3285356,
      "name": "EnBW 87746 Erkheim, Eidlerholzstr. 22",
      "street": "Eidlerholzstra\u00dfe 22",
      "city": "Erkheim",
      "country": "DEU",
      "operator": "EnBW",
      "power": 300.0,
      "hdv": "N1&N2"
    },
    {
      "lat": 52.60074483,
      "lon": 10.10718825,
      "name": "Aral pulse Braunschw. Heerstra\u00dfe 79",
      "street": "Braunschweiger Heerstra\u00dfe 79",
      "city": "Celle",
      "country": "DEU",
      "operator": "Aral Pulse",
      "power": 300.0,
      "hdv": "N1&N2"
    },
    {
      "lat": 54.02193702,
      "lon": 12.23042149,
      "name": "Aral pulse Manfred-Roth-Stra\u00dfe 3",
      "street": "Manfred-Roth-Stra\u00dfe 3",
      "city": "Dummerstorf",
      "country": "DEU",
      "operator": "Aral Pulse",
      "power": 300.0,
      "hdv": "N1&N2&N3&N3+O4"
    },
    {
      "lat": 53.80377686,
      "lon": 9.93866973,
      "name": "Aral pulse Rudolf-Diesel-Stra\u00dfe 2",
      "street": "Rudolf-Diesel-Stra\u00dfe 2",
      "city": "Henstedt-Ulzburg",
      "country": "DEU",
      "operator": "Aral Pulse",
      "power": 300.0,
      "hdv": "N1&N2"
    },
    {
      "lat": 29.78702411,
      "lon": -95.60300807,
      "name": "Shell Woodcreek",
      "street": "150 N Dairy Ashford Rd",
      "city": "Houston",
      "country": "USA",
      "operator": "Shell Recharge",
      "power": 400.0,
      "hdv": ""
    },
    {
      "lat": 49.20418827,
      "lon": 4.01232339,
      "name": "IONITY Champfleury",
      "street": "Voie de la Libert\u00e9",
      "city": "Champfleury",
      "country": "FRA",
      "operator": "IONITY",
      "power": 400.0,
      "hdv": "N1"
    },
    {
      "lat": 52.94499308,
      "lon": 9.88167474,
      "name": "EnBW Shell Wietzendorf",
      "street": "Am Hanfberg 3",
      "city": "Wietzendorf",
      "country": "DEU",
      "operator": "EnBW",
      "power": 300.0,
      "hdv": "N1&N2"
    },
    {
      "lat": 49.31140749,
      "lon": 11.00160667,
      "name": "Aral pulse An der Autobahn 1 Kammerstein",
      "street": "An der Autobahn 1",
      "city": "Kammerstein",
      "country": "DEU",
      "operator": "Aral Pulse",
      "power": 300.0,
      "hdv": "N1&N2&N3&N3+O4"
    },
    {
      "lat": 52.16045954,
      "lon": 9.99710517,
      "name": "Aral pulse Albert-Einstein-Strasse",
      "street": "Albert-Einstein-Stra\u00dfe",
      "city": "Hildesheim",
      "country": "DEU",
      "operator": "Aral Pulse",
      "power": 300.0,
      "hdv": "N1&N2&N3&N3+O4"
    },
    {
      "lat": 50.96848757,
      "lon": 11.85499306,
      "name": "EnBW 07616 Petersberg, Eichenweg 6",
      "street": "Eichenweg 6",
      "city": "Petersberg",
      "country": "DEU",
      "operator": "EnBW",
      "power": 300.0,
      "hdv": "N1&N2"
    },
    {
      "lat": 52.01458767,
      "lon": 5.12217224,
      "name": "IONITY De Knoest",
      "street": "Rijksweg A27",
      "city": "Nieuwegein",
      "country": "NLD",
      "operator": "IONITY",
      "power": 350.0,
      "hdv": "N1&N2"
    },
    {
      "lat": 52.33562971,
      "lon": 14.07328535,
      "name": "Aral pulse Friedenstra\u00dfe 36",
      "street": "Friedenstra\u00dfe 36",
      "city": "F\u00fcrstenwalde/Spree",
      "country": "DEU",
      "operator": "Aral Pulse",
      "power": 300.0,
      "hdv": "N1&N2"
    },
    {
      "lat": 53.25535944,
      "lon": -0.92635942,
      "name": "Shell Recharge A1 Northbound Carriageway",
      "street": "A1",
      "city": "Retford",
      "country": "GBR",
      "operator": "Shell Recharge",
      "power": 300.0,
      "hdv": "N3&N3+O4"
    },
    {
      "lat": 50.68047956,
      "lon": 12.59072179,
      "name": "EnBW A72 Zwickau Ost - 08134 Wildenfels, Arno-Schmidt-Str.",
      "street": "Arno-Schmidt-Stra\u00dfe 28",
      "city": "Wildenfels",
      "country": "DEU",
      "operator": "EnBW",
      "power": 300.0,
      "hdv": "N1&N2"
    },
    {
      "lat": 38.53470479,
      "lon": -0.2046397,
      "name": "IONITY La Marina Este",
      "street": "AP-7",
      "city": "Villajoyosa",
      "country": "ESP",
      "operator": "IONITY",
      "power": 350.0,
      "hdv": "N1&N2&N3&N3+O4"
    },
    {
      "lat": 50.79357766,
      "lon": 7.17580087,
      "name": "EnBW HELLWEG Sankt Augustin",
      "street": "Marie-Curie-Stra\u00dfe 14",
      "city": "Sankt Augustin",
      "country": "DEU",
      "operator": "EnBW",
      "power": 300.0,
      "hdv": "N1&N2"
    },
    {
      "lat": 53.06794003,
      "lon": 12.53336543,
      "name": "Shell Recharge Fretzdorfer Steinstra\u00dfe 9",
      "street": "Fretzdorfer Steinstra\u00dfe",
      "city": "Wittstock/Dosse",
      "country": "DEU",
      "operator": "Shell Recharge",
      "power": 300.0,
      "hdv": "N1&N2"
    },
    {
      "lat": 51.9111112,
      "lon": 13.79669576,
      "name": "Aral pulse Autobahn 13 Luckau",
      "street": "Bersteallee 13",
      "city": "Luckau",
      "country": "DEU",
      "operator": "Aral Pulse",
      "power": 300.0,
      "hdv": "N3&N3+O4"
    },
    {
      "lat": 49.97620329,
      "lon": 8.80324231,
      "name": "EnBW Kaufland R\u00f6dermark",
      "street": "Ober-Rodener-Stra\u00dfe 13",
      "city": "R\u00f6dermark",
      "country": "DEU",
      "operator": "EnBW",
      "power": 300.0,
      "hdv": "N1&N2"
    },
    {
      "lat": 52.1601182,
      "lon": 12.77990697,
      "name": "IONITY Linthe",
      "street": "Westfalenstra\u00dfe 2",
      "city": "Linthe",
      "country": "DEU",
      "operator": "IONITY",
      "power": 350.0,
      "hdv": "N1&N2&N3&N3+O4"
    },
    {
      "lat": 52.27655064,
      "lon": 9.35230037,
      "name": "EnBW 31867 Lauenau, Hanomagstr.",
      "street": "Hanomagstra\u00dfe 1",
      "city": "Lauenau",
      "country": "DEU",
      "operator": "EnBW",
      "power": 300.0,
      "hdv": "N1&N2"
    },
    {
      "lat": 51.00653562,
      "lon": 10.17578785,
      "name": "EnBW 37293 Herleshausen, Brandenburgstr.",
      "street": "Brandenburgstra\u00dfe 3",
      "city": "Herleshausen",
      "country": "DEU",
      "operator": "EnBW",
      "power": 300.0,
      "hdv": "N1&N2"
    },
    {
      "lat": 50.14459068,
      "lon": 10.15397004,
      "name": "EnBW 97714 Bad Kissingen, Oerlenbach, A71",
      "street": "An der Heide 11",
      "city": "Oerlenbach",
      "country": "DEU",
      "operator": "EnBW",
      "power": 300.0,
      "hdv": "N1&N2&N3"
    },
    {
      "lat": 51.51710219,
      "lon": 6.85727434,
      "name": "Aral pulse Teutoburger Stra\u00dfe 1-3",
      "street": "Teutoburger Stra\u00dfe 1-3",
      "city": "Oberhausen",
      "country": "DEU",
      "operator": "Aral Pulse",
      "power": 300.0,
      "hdv": "N1&N2"
    },
    {
      "lat": 52.54412121,
      "lon": 13.64755662,
      "name": "Aral pulse Altlandsberger Chaussee 27",
      "street": "Altlandsberger Chaussee 27",
      "city": "Hoppegarten",
      "country": "DEU",
      "operator": "Aral Pulse",
      "power": 300.0,
      "hdv": "N1&N2&N3&N3+O4"
    },
    {
      "lat": 47.93419028,
      "lon": 8.71684091,
      "name": "EnBW dm Immendingen",
      "street": "Am Freizeitzentrum 5",
      "city": "Immendingen",
      "country": "DEU",
      "operator": "EnBW",
      "power": 300.0,
      "hdv": "N1&N2"
    },
    {
      "lat": 49.52180489,
      "lon": 15.34748355,
      "name": "E.ON Vystrkov",
      "street": "E551",
      "city": "Vystrkov",
      "country": "CZE",
      "operator": "E.ON Drive",
      "power": 400.0,
      "hdv": "N1"
    },
    {
      "lat": 55.67307416,
      "lon": 24.33592599,
      "name": "IONITY Aplinkkelis",
      "street": "Circle K Aplinkkelis 2",
      "city": "Vel\u017eys",
      "country": "LTU",
      "operator": "IONITY",
      "power": 350.0,
      "hdv": "N1&N2&N3&N3+O4"
    },
    {
      "lat": 48.48293602,
      "lon": 12.00048855,
      "name": "Aral pulse Gewerbepark Sp\u00f6rer Au 1",
      "street": "Gewerbepark Sp\u00f6rerau 1",
      "city": "Wang",
      "country": "DEU",
      "operator": "Aral Pulse",
      "power": 300.0,
      "hdv": "N1&N2&N3&N3+O4"
    },
    {
      "lat": 52.33815024,
      "lon": 9.86388895,
      "name": "EnBW Rastst\u00e4tte T&R Hannover-W\u00fclferode West, A7",
      "street": "A7,Autobahnrastst\u00e4tte Hannover-W\u00fclferode West",
      "city": "Hannover",
      "country": "DEU",
      "operator": "EnBW",
      "power": 300.0,
      "hdv": "N1&N2"
    },
    {
      "lat": 51.44055064,
      "lon": 11.98462169,
      "name": "EnBW HELLWEG Halle (Saale)",
      "street": "Merseburger Stra\u00dfe 345",
      "city": "Halle (Saale)",
      "country": "DEU",
      "operator": "EnBW",
      "power": 300.0,
      "hdv": "N1&N2"
    },
    {
      "lat": 47.44936745,
      "lon": 8.7001372,
      "name": "IONITY Kemptthal",
      "street": "Winterthurerstrasse 3",
      "city": "Lindau",
      "country": "CHE",
      "operator": "IONITY",
      "power": 400.0,
      "hdv": "N1"
    },
    {
      "lat": 53.0995146,
      "lon": 9.98188895,
      "name": "EnBW 29646 Bispingen, Gau\u00dfscher Bogen",
      "street": "Gau\u00dfscher Bogen 8",
      "city": "Bispingen",
      "country": "DEU",
      "operator": "EnBW",
      "power": 300.0,
      "hdv": "N1&N2"
    },
    {
      "lat": 51.09453262,
      "lon": 13.7361352,
      "name": "Aral pulse Am Hellerhof",
      "street": "Radeburger Stra\u00dfe/Hellerhof",
      "city": "Dresden",
      "country": "DEU",
      "operator": "Aral Pulse",
      "power": 300.0,
      "hdv": "N1&N2"
    },
    {
      "lat": 47.84624533,
      "lon": 8.55506213,
      "name": "Aral pulse Nordwerk 10",
      "street": "Nordwerk 10",
      "city": "Blumberg",
      "country": "DEU",
      "operator": "Aral Pulse",
      "power": 300.0,
      "hdv": "N1&N2"
    },
    {
      "lat": 48.25933842,
      "lon": 12.15786893,
      "name": "EnBW 84405 Dorfen, A94",
      "street": "Zieglhaus 1",
      "city": "Dorfen",
      "country": "DEU",
      "operator": "EnBW",
      "power": 300.0,
      "hdv": "N1&N2"
    },
    {
      "lat": 52.31797406,
      "lon": 13.60561968,
      "name": "EnBW 15745 Wildau, Chausseestr. 8, 10",
      "street": "Chausseestra\u00dfe 8",
      "city": "Wildau",
      "country": "DEU",
      "operator": "EnBW",
      "power": 400.0,
      "hdv": "N1"
    },
    {
      "lat": 49.40132241,
      "lon": 11.11600707,
      "name": "Aral pulse M\u00fcnchener Stra\u00dfe 401",
      "street": "M\u00fcnchener Stra\u00dfe 401",
      "city": "N\u00fcrnberg",
      "country": "DEU",
      "operator": "Aral Pulse",
      "power": 300.0,
      "hdv": "N1&N2"
    },
    {
      "lat": 49.53196305,
      "lon": 12.13747354,
      "name": "EnBW A93 AS27 Wernberg-K\u00f6blitz, 92533 Wernberg-K\u00f6blitz, Klaus-Conrad-Str. 7",
      "street": "Klaus-Conrad-Stra\u00dfe 7",
      "city": "Wernberg-K\u00f6blitz",
      "country": "DEU",
      "operator": "EnBW",
      "power": 300.0,
      "hdv": "N1&N2"
    },
    {
      "lat": 53.48247056,
      "lon": 10.20757164,
      "name": "EnBW BAUHAUS Hamburg, Curslacker Neuer Deich",
      "street": "Curslacker Neuer Deich 16",
      "city": "Hamburg",
      "country": "DEU",
      "operator": "EnBW",
      "power": 300.0,
      "hdv": "N1&N2"
    },
    {
      "lat": 50.02698007,
      "lon": 8.22324831,
      "name": "Aral pulse Rheinallee 207",
      "street": "Rheinallee 207",
      "city": "Mainz",
      "country": "DEU",
      "operator": "Aral Pulse",
      "power": 300.0,
      "hdv": "N1&N2"
    },
    {
      "lat": 53.48990599,
      "lon": 10.11466573,
      "name": "Aral pulse Wilhelm-Iwan-Ring 1",
      "street": "Wilhelm-Iwan-Ring 1",
      "city": "Hamburg",
      "country": "DEU",
      "operator": "Aral Pulse",
      "power": 300.0,
      "hdv": "N1&N2"
    },
    {
      "lat": 52.02405714,
      "lon": 5.88040747,
      "name": "Shell Recharge A12 E35 NZ",
      "street": "A12",
      "city": "Arnhem",
      "country": "NLD",
      "operator": "Shell Recharge",
      "power": 300.0,
      "hdv": "N1&N2&N3"
    },
    {
      "lat": 50.24840549,
      "lon": 8.99397004,
      "name": "EnBW Rastst\u00e4tte T&R Langen-Bergheim West, Hammersbach, A45",
      "street": "BAB45,Autobahnrastst\u00e4tte Langen-Bergheim West",
      "city": "Hammersbach",
      "country": "DEU",
      "operator": "EnBW",
      "power": 300.0,
      "hdv": "N1&N2"
    },
    {
      "lat": 49.64315424,
      "lon": 8.55191898,
      "name": "EnBW Rastst\u00e4tte T&R Lorsch West, A67",
      "street": "BAB67, Autobahnrastst\u00e4tte Lorsch West",
      "city": "Lorsch",
      "country": "DEU",
      "operator": "EnBW",
      "power": 300.0,
      "hdv": "N1&N2"
    },
    {
      "lat": 51.69216925,
      "lon": 11.76734241,
      "name": "EnBW 06420 K\u00f6nnern, Nordstr.",
      "street": "Nordstra\u00dfe 3",
      "city": "K\u00f6nnern",
      "country": "DEU",
      "operator": "EnBW",
      "power": 300.0,
      "hdv": "N1&N2"
    },
    {
      "lat": 51.75414523,
      "lon": 6.9634335,
      "name": "EnBW A31 AS36 Lembeck, 46286 Dorsten, Endelner Feld 7, 7a",
      "street": "Endelner Feld 13",
      "city": "Dorsten",
      "country": "DEU",
      "operator": "EnBW",
      "power": 300.0,
      "hdv": "N1&N2"
    },
    {
      "lat": 52.15948057,
      "lon": 9.99422029,
      "name": "EnBW A7 AS62 Hildesheim",
      "street": "Albert-Einstein-Stra\u00dfe 12",
      "city": "Hildesheim",
      "country": "DEU",
      "operator": "EnBW",
      "power": 300.0,
      "hdv": "N1&N2"
    },
    {
      "lat": 53.57922131,
      "lon": 10.04565272,
      "name": "Aral pulse Dehnhaide 49",
      "street": "Dehnhaide 49",
      "city": "Hamburg",
      "country": "DEU",
      "operator": "Aral Pulse",
      "power": 300.0,
      "hdv": "N1&N2"
    },
    {
      "lat": 42.34604813,
      "lon": 1.83276683,
      "name": "IONITY T\u00fanel del Cad\u00ed",
      "street": "C-16 km 130.6",
      "city": "Riu de Cerdanya",
      "country": "ESP",
      "operator": "IONITY",
      "power": 350.0,
      "hdv": "N1&N2&N3&N3+O4"
    },
    {
      "lat": 54.01184393,
      "lon": 12.2001352,
      "name": "EnBW 18196 Kavelstorf, Zur Radewiese",
      "street": "Zur Radewiese 1A",
      "city": "Dummerstorf",
      "country": "DEU",
      "operator": "EnBW",
      "power": 300.0,
      "hdv": "N1&N2"
    },
    {
      "lat": 64.93447456,
      "lon": 13.16795602,
      "name": "IONITY Namsskogan",
      "street": "Kleist Geddes vei 35",
      "city": "Namsskogan",
      "country": "NOR",
      "operator": "IONITY",
      "power": 350.0,
      "hdv": "N1&N2&N3"
    },
    {
      "lat": 43.07488397,
      "lon": 1.64161768,
      "name": "IONITY Pamiers",
      "street": "Parc Commercial Delta-Sud",
      "city": "Verniolle",
      "country": "FRA",
      "operator": "IONITY",
      "power": 350.0,
      "hdv": "N1&N2&N3&N3+O4"
    },
    {
      "lat": 50.7246127,
      "lon": 12.77866573,
      "name": "Aral pulse Neue Schichtstra\u00dfe 16",
      "street": "Neue Schichtstra\u00dfe 16",
      "city": "Niederdorf",
      "country": "DEU",
      "operator": "Aral Pulse",
      "power": 300.0,
      "hdv": "N1&N2"
    },
    {
      "lat": 48.2502143,
      "lon": 11.60659666,
      "name": "Aral pulse Schlei\u00dfheimer Stra\u00dfe 124",
      "street": "Schlei\u00dfheimer Stra\u00dfe 124",
      "city": "Garching bei M\u00fcnchen",
      "country": "DEU",
      "operator": "Aral Pulse",
      "power": 300.0,
      "hdv": "N1&N2&N3&N3+O4"
    },
    {
      "lat": 45.38867976,
      "lon": 8.1294335,
      "name": "IONITY Cavagli\u00e0",
      "street": "Strada della Mandria",
      "city": "Cavagli\u00e0",
      "country": "ITA",
      "operator": "IONITY",
      "power": 350.0,
      "hdv": "N1&N2&N3&N3+O4"
    },
    {
      "lat": 48.71344653,
      "lon": 9.16691398,
      "name": "EnBW EnBW City Stuttgart",
      "street": "Schelmenwasenstra\u00dfe 15",
      "city": "Stuttgart",
      "country": "DEU",
      "operator": "EnBW",
      "power": 400.0,
      "hdv": "N1"
    },
    {
      "lat": 53.12326035,
      "lon": 8.08551158,
      "name": "EnBW dm Edewecht",
      "street": "Friedrichsfehner Stra\u00dfe 1b",
      "city": "Edewecht",
      "country": "DEU",
      "operator": "EnBW",
      "power": 300.0,
      "hdv": "N1&N2"
    },
    {
      "lat": 51.53169378,
      "lon": 7.44141348,
      "name": "Aral pulse Sch\u00e4ferstra\u00dfe 51",
      "street": "Sch\u00e4ferstra\u00dfe 51",
      "city": "Dortmund",
      "country": "DEU",
      "operator": "Aral Pulse",
      "power": 300.0,
      "hdv": "N3&N3+O4"
    },
    {
      "lat": 49.69852761,
      "lon": 10.85440947,
      "name": "Aral pulse Gewerbepark 2",
      "street": "Gewerbepark 2",
      "city": "Gremsdorf",
      "country": "DEU",
      "operator": "Aral Pulse",
      "power": 300.0,
      "hdv": "N1&N2"
    },
    {
      "lat": 52.32028037,
      "lon": 7.06769076,
      "name": "Aral pulse Athener Stra\u00dfe 1",
      "street": "Baumwollstra\u00dfe",
      "city": "Bad Bentheim",
      "country": "DEU",
      "operator": "Aral Pulse",
      "power": 300.0,
      "hdv": "N1&N2&N3"
    },
    {
      "lat": 51.06252461,
      "lon": 13.68038845,
      "name": "Aral pulse Hamburger Stra\u00dfe 88c",
      "street": "Hamburger Stra\u00dfe 88c",
      "city": "Dresden",
      "country": "DEU",
      "operator": "Aral Pulse",
      "power": 300.0,
      "hdv": "N1&N2"
    },
    {
      "lat": 53.28885894,
      "lon": 9.50745952,
      "name": "Aral pulse Stader Stra\u00dfe 30",
      "street": "Stader Stra\u00dfe 30",
      "city": "Sittensen",
      "country": "DEU",
      "operator": "Aral Pulse",
      "power": 300.0,
      "hdv": "N1&N2&N3"
    },
    {
      "lat": 49.76933742,
      "lon": 8.49590497,
      "name": "Shell Recharge Robert-Bunsen-Str. 54",
      "street": "Robert-Bunsen-Stra\u00dfe 50",
      "city": "Gernsheim",
      "country": "DEU",
      "operator": "Shell Recharge",
      "power": 300.0,
      "hdv": "N1&N2"
    },
    {
      "lat": 59.93396905,
      "lon": 12.22705812,
      "name": "IONITY Grenseparken",
      "street": "Grensevegen",
      "city": "Magnor",
      "country": "NOR",
      "operator": "IONITY",
      "power": 350.0,
      "hdv": "N1&N2&N3&N3+O4"
    },
    {
      "lat": 51.17774283,
      "lon": 12.010937,
      "name": "EnBW A9 AS20 Wei\u00dfenfels, 06686 L\u00fctzen, Hallesche Str.",
      "street": "Schwabenweg L\u00fctzen 2",
      "city": "L\u00fctzen",
      "country": "DEU",
      "operator": "EnBW",
      "power": 300.0,
      "hdv": "N1&N2"
    },
    {
      "lat": 47.67605014,
      "lon": 9.15209416,
      "name": "Aral pulse Opelstra\u00dfe 1",
      "street": "Opelstra\u00dfe 1",
      "city": "Konstanz",
      "country": "DEU",
      "operator": "Aral Pulse",
      "power": 400.0,
      "hdv": "N1"
    },
    {
      "lat": 60.46352061,
      "lon": 12.06149956,
      "name": "IONITY Kirken\u00e6r",
      "street": "Sol\u00f8rvegen 1127",
      "city": "Kirken\u00e6r",
      "country": "NOR",
      "operator": "IONITY",
      "power": 350.0,
      "hdv": "N1&N2&N3&N3+O4"
    },
    {
      "lat": 56.02034043,
      "lon": 12.5687338,
      "name": "Helsing\u00f8r Sundhedshus v Birkedalsvej (v. Harald Nyborg)",
      "street": "Birkedalsvej 21",
      "city": "Helsing\u00f8r",
      "country": "DNK",
      "operator": "E.ON Drive",
      "power": 300.0,
      "hdv": "N1&N2&N3&N3+O4"
    },
    {
      "lat": 53.5782133,
      "lon": 10.09324531,
      "name": "Shell Recharge Ahrensburger Stra\u00dfe 35",
      "street": "Ahrensburger Stra\u00dfe 35",
      "city": "Hamburg",
      "country": "DEU",
      "operator": "Shell Recharge",
      "power": 360.0,
      "hdv": "N1&N2"
    },
    {
      "lat": 51.16520129,
      "lon": 12.26340647,
      "name": "Shell Recharge Leipziger Vorstadt 22",
      "street": "Leipziger Vorstadt 22",
      "city": "Pegau",
      "country": "DEU",
      "operator": "Shell Recharge",
      "power": 300.0,
      "hdv": "N1&N2"
    },
    {
      "lat": 53.50186795,
      "lon": 11.08760867,
      "name": "IONITY Wittenburg",
      "street": "Hagenower Chaussee 31a",
      "city": "Wittenburg",
      "country": "DEU",
      "operator": "IONITY",
      "power": 350.0,
      "hdv": "N1&N2&N3&N3+O4"
    },
    {
      "lat": 50.46919528,
      "lon": 8.136932,
      "name": "Aral pulse B49/Nordseite",
      "street": "B49",
      "city": "Beselich",
      "country": "DEU",
      "operator": "Aral Pulse",
      "power": 300.0,
      "hdv": "N3&N3+O4"
    },
    {
      "lat": 57.57635544,
      "lon": 9.98465372,
      "name": "Hirtshals Transport Center",
      "street": "Dalsagervej 3",
      "city": "Hirtshals",
      "country": "DNK",
      "operator": "E.ON Drive",
      "power": 400.0,
      "hdv": "N1&N2&N3&N3+O4"
    },
    {
      "lat": 57.28868977,
      "lon": 13.59447754,
      "name": "Gislaveds Energipark DC",
      "street": "Stegv\u00e4gen 1",
      "city": "Gislaved",
      "country": "SWE",
      "operator": "E.ON Drive",
      "power": 400.0,
      "hdv": "N1&N2&N3&N3+O4"
    },
    {
      "lat": 49.2243124,
      "lon": 8.61176783,
      "name": "Shell Recharge Am Autobahnzubringer 1",
      "street": "Am Autobahnzubringer 1",
      "city": "Kronau",
      "country": "DEU",
      "operator": "Shell Recharge",
      "power": 300.0,
      "hdv": "N1&N2"
    },
    {
      "lat": 52.24938547,
      "lon": 8.03736643,
      "name": "Shell Recharge Sutthauser Stra\u00dfe 281",
      "street": "Sutthauser Stra\u00dfe 281",
      "city": "Osnabr\u00fcck",
      "country": "DEU",
      "operator": "Shell Recharge",
      "power": 360.0,
      "hdv": "N1&N2&N3"
    },
    {
      "lat": 52.22058767,
      "lon": 10.5021302,
      "name": "Shell Recharge Thiedestra\u00dfe 30 B",
      "street": "Thiedestra\u00dfe 30B",
      "city": "Braunschweig",
      "country": "DEU",
      "operator": "Shell Recharge",
      "power": 360.0,
      "hdv": "N1&N2"
    },
    {
      "lat": 49.79912921,
      "lon": 9.94622429,
      "name": "Shell Recharge Schweinfurter Str. 5",
      "street": "Schweinfurter Stra\u00dfe 5",
      "city": "W\u00fcrzburg",
      "country": "DEU",
      "operator": "Shell Recharge",
      "power": 360.0,
      "hdv": "N1&N2"
    },
    {
      "lat": 52.19272281,
      "lon": 8.55749256,
      "name": "Shell Recharge Osnabr\u00fccker Str. 72-76",
      "street": "Osnabr\u00fccker Stra\u00dfe 72",
      "city": "B\u00fcnde",
      "country": "DEU",
      "operator": "Shell Recharge",
      "power": 300.0,
      "hdv": "N1&N2&N3"
    },
    {
      "lat": 53.74997806,
      "lon": 9.93435542,
      "name": "Shell Recharge Friedrichsgaber Stra\u00dfe 19",
      "street": "Friedrichsgaber Stra\u00dfe 19",
      "city": "Quickborn",
      "country": "DEU",
      "operator": "Shell Recharge",
      "power": 360.0,
      "hdv": "N1&N2"
    },
    {
      "lat": 54.08328337,
      "lon": 12.19232039,
      "name": "IONITY Rostock",
      "street": "Timmermannsstrat 4A",
      "city": "Rostock",
      "country": "DEU",
      "operator": "IONITY",
      "power": 350.0,
      "hdv": "N1&N2&N3&N3+O4"
    },
    {
      "lat": 48.5165116,
      "lon": 9.75694401,
      "name": "IONITY Merklingen",
      "street": "Nellinger Stra\u00dfe 25",
      "city": "Merklingen",
      "country": "DEU",
      "operator": "IONITY",
      "power": 400.0,
      "hdv": "N1"
    },
    {
      "lat": 49.46902211,
      "lon": 11.1296327,
      "name": "Shell Recharge Erlenstegenstra\u00dfe 39",
      "street": "Erlenstegenstra\u00dfe 39",
      "city": "N\u00fcrnberg",
      "country": "DEU",
      "operator": "Shell Recharge",
      "power": 300.0,
      "hdv": "N1&N2"
    },
    {
      "lat": 51.46588497,
      "lon": 5.4173394,
      "name": "Shell Recharge Het Schakelplein 6 (Truck only)",
      "street": "Het Schakelplein 30",
      "city": "Eindhoven",
      "country": "NLD",
      "operator": "Shell Recharge",
      "power": 300.0,
      "hdv": "N3&N3+O4"
    },
    {
      "lat": 51.00678087,
      "lon": 9.47317124,
      "name": "Aral pulse Hauptstra\u00dfe 32",
      "street": "Hauptstra\u00dfe 32",
      "city": "Kn\u00fcllwald",
      "country": "DEU",
      "operator": "Aral Pulse",
      "power": 300.0,
      "hdv": "N1&N2&N3&N3+O4"
    },
    {
      "lat": 50.03734743,
      "lon": 11.4906337,
      "name": "Aral pulse An der Autobahn 1 Neudrossenfeld",
      "street": "An der Autobahn 1",
      "city": "Neudrossenfeld",
      "country": "DEU",
      "operator": "Aral Pulse",
      "power": 300.0,
      "hdv": "N1&N2&N3&N3+O4"
    },
    {
      "lat": 44.51893102,
      "lon": 11.26434541,
      "name": "IONITY Bologna Borgo Panigale",
      "street": "Viale Alcide De Gasperi",
      "city": "Bologna",
      "country": "ITA",
      "operator": "IONITY",
      "power": 400.0,
      "hdv": "N1"
    },
    {
      "lat": 57.87422531,
      "lon": 11.96639846,
      "name": "IONITY Kung\u00e4lv (Kongah\u00e4lla Center)",
      "street": "\u00c4lvebacken 1",
      "city": "Kung\u00e4lv",
      "country": "SWE",
      "operator": "IONITY",
      "power": 400.0,
      "hdv": "N1"
    },
    {
      "lat": 66.60765274,
      "lon": 19.82799606,
      "name": "IONITY Jokkmokk",
      "street": "F\u00f6reningsgatan 8",
      "city": "Jokkmokk",
      "country": "SWE",
      "operator": "IONITY",
      "power": 400.0,
      "hdv": "N1"
    },
    {
      "lat": 46.45562871,
      "lon": 9.7907378,
      "name": "IONITY Silvaplana",
      "street": "Via Chantunela 1",
      "city": "Silvaplana",
      "country": "CHE",
      "operator": "IONITY",
      "power": 400.0,
      "hdv": "N1"
    },
    {
      "lat": 65.58807516,
      "lon": 19.19025832,
      "name": "IONITY Arvidsjaur",
      "street": "Storgatan 63",
      "city": "Arvidsjaur",
      "country": "SWE",
      "operator": "IONITY",
      "power": 400.0,
      "hdv": "N1&N2&N3&N3+O4"
    },
    {
      "lat": 51.16963272,
      "lon": 6.82270377,
      "name": "Aral pulse M\u00fcnchener Stra\u00dfe 300",
      "street": "M\u00fcnchener Stra\u00dfe 300",
      "city": "D\u00fcsseldorf",
      "country": "DEU",
      "operator": "Aral Pulse",
      "power": 300.0,
      "hdv": "N1&N2&N3&N3+O4"
    },
    {
      "lat": 61.06448457,
      "lon": 7.5084345,
      "name": "IONITY Laerdal",
      "street": "H\u00e5bakken",
      "city": "L\u00e6rdal",
      "country": "NOR",
      "operator": "IONITY",
      "power": 350.0,
      "hdv": "N1&N2&N3"
    },
    {
      "lat": 51.39107016,
      "lon": 6.10098005,
      "name": "Milence Charging Hub Venlo",
      "street": "James Cookweg 31",
      "city": "Venlo",
      "country": "NLD",
      "operator": "Milence",
      "power": 400.0,
      "hdv": "N3+O4&N3"
    },
    {
      "lat": 47.67253062,
      "lon": 9.52301608,
      "name": "IONITY Friedrichshafen",
      "street": "Am Flugplatz 64",
      "city": "Friedrichshafen",
      "country": "DEU",
      "operator": "IONITY",
      "power": 400.0,
      "hdv": "N1"
    },
    {
      "lat": 64.7665156,
      "lon": 21.02491198,
      "name": "IONITY Skellefte\u00e5",
      "street": "Varugatan 28",
      "city": "Skellefte\u00e5",
      "country": "SWE",
      "operator": "IONITY",
      "power": 400.0,
      "hdv": "N1"
    },
    {
      "lat": 49.41096505,
      "lon": 11.54417624,
      "name": "EnBW A6 AS63 Alfeld, 91236 Alfeld, Vogelherd",
      "street": "Vogelherd 5A",
      "city": "Alfeld",
      "country": "DEU",
      "operator": "EnBW",
      "power": 400.0,
      "hdv": "N1"
    },
    {
      "lat": 49.99300909,
      "lon": 8.38661768,
      "name": "aral pulse Mainzer Stra\u00dfe 95",
      "street": "Mainzer Stra\u00dfe 95",
      "city": "R\u00fcsselsheim am Main",
      "country": "DEU",
      "operator": "Aral Pulse",
      "power": 300.0,
      "hdv": "N1&N2&N3&N3+O4"
    },
    {
      "lat": 53.50598407,
      "lon": 10.08974381,
      "name": "Aral pulse Amandus-Stubbe-Stra\u00dfe 6",
      "street": "Amandus-Stubbe-Stra\u00dfe 6",
      "city": "Hamburg",
      "country": "DEU",
      "operator": "Aral Pulse",
      "power": 300.0,
      "hdv": "N3&N3+O4"
    },
    {
      "lat": 48.24932341,
      "lon": 11.63436543,
      "name": "IONITY Garching",
      "street": "Parkring 35",
      "city": "Garching bei M\u00fcnchen",
      "country": "DEU",
      "operator": "IONITY",
      "power": 400.0,
      "hdv": "N1&N2&N3&N3+O4"
    },
    {
      "lat": 57.78716525,
      "lon": 14.22685792,
      "name": "IONITY J\u00f6nk\u00f6ping",
      "street": "Elmiav\u00e4gen 11",
      "city": "J\u00f6nk\u00f6ping",
      "country": "SWE",
      "operator": "IONITY",
      "power": 400.0,
      "hdv": "N1"
    },
    {
      "lat": 53.0594195,
      "lon": 9.1651392,
      "name": "EnBW Dodenhof Posthausen",
      "street": "Posthausen 1",
      "city": "Ottersberg",
      "country": "DEU",
      "operator": "EnBW",
      "power": 400.0,
      "hdv": "N1"
    },
    {
      "lat": 50.90799608,
      "lon": 12.97610717,
      "name": "EnBW A4_71 Chemnitz Ost, 09244 Lichtenau, Sachsenstra\u00dfe 9",
      "street": "Sachsenstra\u00dfe 9",
      "city": "Lichtenau",
      "country": "DEU",
      "operator": "EnBW",
      "power": 400.0,
      "hdv": "N1"
    },
    {
      "lat": 49.9256177,
      "lon": 7.93538045,
      "name": "EnBW A61 AS50 Dreieck Nahetal, 55411 Bingen am Rhein",
      "street": "Gustav-Stresemann-Stra\u00dfe 4",
      "city": "Bingen am Rhein",
      "country": "DEU",
      "operator": "EnBW",
      "power": 400.0,
      "hdv": "N1"
    },
    {
      "lat": 51.95112221,
      "lon": 8.57270477,
      "name": "EnBW 33689 Bielefeld, Hansestr. 1F",
      "street": "Hansestra\u00dfe 1F",
      "city": "Bielefeld",
      "country": "DEU",
      "operator": "EnBW",
      "power": 400.0,
      "hdv": "N1"
    },
    {
      "lat": 52.00180089,
      "lon": 10.13456863,
      "name": "Aral pulse Oppelner Stra\u00dfe 1",
      "street": "Oppelner Stra\u00dfe 1",
      "city": "Bockenem",
      "country": "DEU",
      "operator": "Aral Pulse",
      "power": 300.0,
      "hdv": "N1&N2&N3&N3+O4"
    },
    {
      "lat": 49.83542751,
      "lon": 7.99724431,
      "name": "EnBW Autohof Gau-Bickelheim Jeder-manns",
      "street": "Rheinhessenblick 8",
      "city": "Gau-Bickelheim",
      "country": "DEU",
      "operator": "EnBW",
      "power": 400.0,
      "hdv": "N1"
    },
    {
      "lat": 53.19347156,
      "lon": 9.28951958,
      "name": "Aral pulse An der Autobahn 1 Gyhum",
      "street": "An der Autobahn 1",
      "city": "Gyhum",
      "country": "DEU",
      "operator": "Aral Pulse",
      "power": 300.0,
      "hdv": "N1&N2&N3"
    },
    {
      "lat": 55.34082691,
      "lon": 8.77328535,
      "name": "VD Ribe - UFC",
      "street": "Plantagevej 5",
      "city": "Ribe",
      "country": "DNK",
      "operator": "E.ON Drive",
      "power": 400.0,
      "hdv": "N1"
    },
    {
      "lat": 55.96447156,
      "lon": 9.39330237,
      "name": "VD N\u00f8rre Snede UFC",
      "street": "R\u00f8rb\u00e6kvej",
      "city": "N\u00f8rre Snede",
      "country": "DNK",
      "operator": "E.ON Drive",
      "power": 400.0,
      "hdv": "N1"
    },
    {
      "lat": 55.47786295,
      "lon": 9.87764771,
      "name": "Lilleb\u00e6lt Syd",
      "street": "Fynske Motorvej 571",
      "city": "N\u00f8rre Aaby",
      "country": "DNK",
      "operator": "E.ON Drive",
      "power": 400.0,
      "hdv": "N1"
    },
    {
      "lat": 51.63649958,
      "lon": 12.20057564,
      "name": "IONITY Bitterfeld-Wolfen",
      "street": "Sonnenfeld 2",
      "city": "Bitterfeld-Wolfen",
      "country": "DEU",
      "operator": "IONITY",
      "power": 350.0,
      "hdv": "N1&N2&N3&N3+O4"
    },
    {
      "lat": 48.50548457,
      "lon": 8.8267388,
      "name": "Aral pulse Mercedesstra\u00dfe 51",
      "street": "Mercedesstra\u00dfe 51",
      "city": "Rottenburg am Neckar",
      "country": "DEU",
      "operator": "Aral Pulse",
      "power": 300.0,
      "hdv": "N1&N2&N3&N3+O4"
    },
    {
      "lat": 50.64689698,
      "lon": 7.33769576,
      "name": "Aral pulse Gewerbegebiet Am Dachsberg 8",
      "street": "Windhagener Weg",
      "city": "Bad Honnef",
      "country": "DEU",
      "operator": "Aral Pulse",
      "power": 300.0,
      "hdv": "N1&N2&N3&N3+O4"
    },
    {
      "lat": 58.64587796,
      "lon": 16.16628035,
      "name": "Norrk\u00f6ping \u00c5by trafikplats",
      "street": "Cylinderv\u00e4gen 7",
      "city": "\u00c5by",
      "country": "SWE",
      "operator": "E.ON Drive",
      "power": 400.0,
      "hdv": "N1&N2&N3&N3+O4"
    },
    {
      "lat": 55.35388897,
      "lon": 11.14174681,
      "name": "IONITY Kors\u00f8r",
      "street": "Energivej 4",
      "city": "Kors\u00f8r",
      "country": "DNK",
      "operator": "IONITY",
      "power": 400.0,
      "hdv": "N1"
    },
    {
      "lat": 53.4972133,
      "lon": 8.62487994,
      "name": "Shell Recharge Frederikshavener Str. 97",
      "street": "Frederikshavner Stra\u00dfe 97",
      "city": "Bremerhaven",
      "country": "DEU",
      "operator": "Shell Recharge",
      "power": 300.0,
      "hdv": "N1&N2"
    },
    {
      "lat": 51.47072881,
      "lon": 13.8684395,
      "name": "Shell Recharge Schipkauer Stra\u00dfe 6",
      "street": "Schipkauer Stra\u00dfe 6",
      "city": "Schwarzheide",
      "country": "DEU",
      "operator": "Shell Recharge",
      "power": 300.0,
      "hdv": "N1&N2&N3&N3+O4"
    },
    {
      "lat": 48.45547056,
      "lon": 8.69899406,
      "name": "Aral pulse Bildechinger Steige 64",
      "street": "Bildechinger Steige 64",
      "city": "Horb am Neckar",
      "country": "DEU",
      "operator": "Aral Pulse",
      "power": 300.0,
      "hdv": "N1&N2&N3"
    },
    {
      "lat": 41.13024733,
      "lon": 1.18022829,
      "name": "IONITY Tarragona",
      "street": "Autov\u00eda del Mediterr\u00e1neo, A-7",
      "city": "Reus",
      "country": "ESP",
      "operator": "IONITY",
      "power": 350.0,
      "hdv": "N1&N2&N3&N3+O4"
    },
    {
      "lat": 66.05050659,
      "lon": 17.89435042,
      "name": "IONITY Arjeplog",
      "street": "Lugnetv\u00e4gen 5",
      "city": "Arjeplog",
      "country": "SWE",
      "operator": "IONITY",
      "power": 400.0,
      "hdv": "N1"
    },
    {
      "lat": 49.44482991,
      "lon": 10.25059966,
      "name": "Aral pulse Baukreativstra\u00dfe 7",
      "street": "Baukreativstra\u00dfe 5",
      "city": "Steinsfeld",
      "country": "DEU",
      "operator": "Aral Pulse",
      "power": 300.0,
      "hdv": "N1&N2&N3&N3+O4"
    },
    {
      "lat": 52.39634643,
      "lon": 4.80082889,
      "name": "Shell Recharge Galwin 6",
      "street": "Galwin 6",
      "city": "Amsterdam",
      "country": "NLD",
      "operator": "Shell Recharge",
      "power": 400.0,
      "hdv": "N1"
    },
    {
      "lat": 50.64798407,
      "lon": 7.33460667,
      "name": "Aral pulse Gewerbegebiet Am Dachsberg 8",
      "street": "Gewerbepark Dachsberg 8",
      "city": "Bad Honnef",
      "country": "DEU",
      "operator": "Aral Pulse",
      "power": 300.0,
      "hdv": "N3&N3+O4"
    },
    {
      "lat": 51.0053114,
      "lon": 9.48134041,
      "name": "IONITY Kn\u00fcllwald",
      "street": "Schilfwiese 1",
      "city": "Kn\u00fcllwald",
      "country": "DEU",
      "operator": "IONITY",
      "power": 400.0,
      "hdv": "N1&N2&N3&N3+O4"
    },
    {
      "lat": 49.19453562,
      "lon": 1.22521028,
      "name": "Milence Charging Hub Heudebouville",
      "street": "2 Route de Louviers",
      "city": "Heudebouville",
      "country": "FRA",
      "operator": "Milence",
      "power": 400.0,
      "hdv": "N3+O4&N3"
    },
    {
      "lat": 47.66458267,
      "lon": -3.00337044,
      "name": "IONITY Auray",
      "street": "36 Avenue de l'Oc\u00e9an",
      "city": "Auray",
      "country": "FRA",
      "operator": "IONITY",
      "power": 400.0,
      "hdv": "N1"
    },
    {
      "lat": 50.47176685,
      "lon": -4.70415722,
      "name": "IONITY Bodmin",
      "street": "Launceston Road",
      "city": "Bodmin",
      "country": "GBR",
      "operator": "IONITY",
      "power": 400.0,
      "hdv": "N1"
    },
    {
      "lat": 58.83997306,
      "lon": 5.72265672,
      "name": "IONITY Sandnesporten",
      "street": "J\u00e6rveien 107",
      "city": "Sandnes",
      "country": "NOR",
      "operator": "IONITY",
      "power": 400.0,
      "hdv": "N1"
    },
    {
      "lat": 49.25873082,
      "lon": 10.50151558,
      "name": "Aral pulse Am Eichelberg 2",
      "street": "Am Eichelberg 1",
      "city": "Herrieden",
      "country": "DEU",
      "operator": "Aral Pulse",
      "power": 300.0,
      "hdv": "N1&N2&N3&N3+O4"
    },
    {
      "lat": 52.7991142,
      "lon": 6.11980987,
      "name": "IONITY Steenwijk",
      "street": "Woldmeentherand 21",
      "city": "Steenwijk",
      "country": "NLD",
      "operator": "IONITY",
      "power": 400.0,
      "hdv": "N1"
    },
    {
      "lat": 49.99636445,
      "lon": 7.68338445,
      "name": "Aral pulse Bahnhofstra\u00dfe 53",
      "street": "Bahnhofstra\u00dfe 53",
      "city": "Rheinb\u00f6llen",
      "country": "DEU",
      "operator": "Aral Pulse",
      "power": 300.0,
      "hdv": "N1&N2&N3&N3+O4"
    },
    {
      "lat": 54.70979088,
      "lon": 11.91962369,
      "name": "VD Gedser UFC",
      "street": "V\u00e6ggerl\u00f8sevej",
      "city": "V\u00e6ggerl\u00f8se",
      "country": "DNK",
      "operator": "E.ON Drive",
      "power": 400.0,
      "hdv": "N1"
    },
    {
      "lat": 50.9375136,
      "lon": 11.38995302,
      "name": "EnBW A4 AS50 Apolda-Mellingen, 99441 Mellingen, Hainholzstr.",
      "street": "Hainholzstra\u00dfe 3",
      "city": "Mellingen",
      "country": "DEU",
      "operator": "EnBW",
      "power": 400.0,
      "hdv": "N1"
    },
    {
      "lat": 56.13366375,
      "lon": 13.38810117,
      "name": "Rifil Perstorp",
      "street": "Verkstadsgatan 3B",
      "city": "Perstorp",
      "country": "SWE",
      "operator": "E.ON Drive",
      "power": 400.0,
      "hdv": "N3&N3+O4"
    },
    {
      "lat": 50.68678687,
      "lon": 2.8404345,
      "name": "IONITY Nieppe",
      "street": "Ruelle du Bailly",
      "city": "Nieppe",
      "country": "FRA",
      "operator": "IONITY",
      "power": 400.0,
      "hdv": "N1"
    },
    {
      "lat": 50.14887996,
      "lon": 8.03876783,
      "name": "EnBW B260 Bad Schwalbach, Nikolaus-August-Otto-Str. 27",
      "street": "Nikolaus-August-Otto-Stra\u00dfe 27",
      "city": "Bad Schwalbach",
      "country": "DEU",
      "operator": "EnBW",
      "power": 400.0,
      "hdv": "N1"
    },
    {
      "lat": 52.81370879,
      "lon": 8.19411418,
      "name": "EnBW A1 AS63 Cloppenburg, 49685 Emstek, S\u00fcd-Allee 1",
      "street": "S\u00fcd-Allee 5",
      "city": "Emstek",
      "country": "DEU",
      "operator": "EnBW",
      "power": 400.0,
      "hdv": "N1"
    },
    {
      "lat": 51.26660069,
      "lon": 4.28555062,
      "name": "Milence Charging Hub Antwerp Ketenis",
      "street": "Ketenislaan 1",
      "city": "Kallo",
      "country": "BEL",
      "operator": "Milence",
      "power": 1200.0,
      "hdv": "N3&N3+O4"
    },
    {
      "lat": 67.28483292,
      "lon": 14.56955662,
      "name": "IONITY Bod\u00f8",
      "street": "S\u00e6tlandshaugen",
      "city": "Bod\u00f8",
      "country": "NOR",
      "operator": "IONITY",
      "power": 400.0,
      "hdv": "N1"
    },
    {
      "lat": 47.06536945,
      "lon": 7.2914365,
      "name": "IONITY Lyss",
      "street": "S\u00fcdstrasse 16a",
      "city": "Lyss",
      "country": "CHE",
      "operator": "IONITY",
      "power": 400.0,
      "hdv": "N1"
    },
    {
      "lat": 44.51460569,
      "lon": 4.78300507,
      "name": "IONITY Mont\u00e9limar Est 2",
      "street": "A7",
      "city": "Allan",
      "country": "FRA",
      "operator": "IONITY",
      "power": 400.0,
      "hdv": "N1"
    },
    {
      "lat": 50.17510119,
      "lon": 9.04421228,
      "name": "EnBW REWE Langenselbold, Kinzigstra\u00dfe",
      "street": "Kinzigstra\u00dfe 1",
      "city": "Langenselbold",
      "country": "DEU",
      "operator": "EnBW",
      "power": 400.0,
      "hdv": "N1"
    },
    {
      "lat": 47.30425434,
      "lon": 7.92949556,
      "name": "IONITY Oftringen",
      "street": "Nordstrasse 14",
      "city": "Oftringen",
      "country": "CHE",
      "operator": "IONITY",
      "power": 400.0,
      "hdv": "N1"
    },
    {
      "lat": 51.70702011,
      "lon": 8.72264571,
      "name": "IONITY Paderborn",
      "street": "Frankfurter Weg 11",
      "city": "Paderborn",
      "country": "DEU",
      "operator": "IONITY",
      "power": 400.0,
      "hdv": "N1"
    },
    {
      "lat": 44.51656165,
      "lon": 4.781935,
      "name": "IONITY Mont\u00e9limar Ouest 2",
      "street": "A7",
      "city": "Allan",
      "country": "FRA",
      "operator": "IONITY",
      "power": 400.0,
      "hdv": "N1"
    },
    {
      "lat": 52.49970379,
      "lon": 13.74491098,
      "name": "EnBW A10 AS4 Fredersdorf/Vogelsdorf, 15370 Fredersdorf-Vogelsdorf, Frankfurter Chaussee",
      "street": "Frankfurter Chaussee 67",
      "city": "Fredersdorf-Vogelsdorf",
      "country": "DEU",
      "operator": "EnBW",
      "power": 400.0,
      "hdv": "N1"
    },
    {
      "lat": 51.46832241,
      "lon": 7.59394201,
      "name": "IONITY Lichtendorf Nord",
      "street": "R\u00f6merstra\u00dfe 28",
      "city": "Dortmund",
      "country": "DEU",
      "operator": "IONITY",
      "power": 350.0,
      "hdv": "N1&N2&N3"
    },
    {
      "lat": 47.12512421,
      "lon": 8.39729036,
      "name": "IONITY Gisikon",
      "street": "Tellstrasse 1",
      "city": "Gisikon",
      "country": "CHE",
      "operator": "IONITY",
      "power": 400.0,
      "hdv": "N1"
    },
    {
      "lat": 60.90948157,
      "lon": 10.81257764,
      "name": "IONITY Rudsh\u00f8gda",
      "street": "Stolvstadvegen 2",
      "city": "Rudsh\u00f8gda",
      "country": "NOR",
      "operator": "IONITY",
      "power": 400.0,
      "hdv": "N1"
    },
    {
      "lat": 50.89835244,
      "lon": 3.40296103,
      "name": "IONITY Waregem",
      "street": "Gentseweg 524",
      "city": "Waregem",
      "country": "BEL",
      "operator": "IONITY",
      "power": 400.0,
      "hdv": "N1"
    },
    {
      "lat": 56.48784693,
      "lon": 8.58200107,
      "name": "IONITY Struer",
      "street": "Industrivej 2",
      "city": "Struer",
      "country": "DNK",
      "operator": "IONITY",
      "power": 400.0,
      "hdv": "N1"
    },
    {
      "lat": 51.48415024,
      "lon": 6.76380887,
      "name": "Ladepark Duisburg, Beecker Str. 51, 47166 Duisburg",
      "street": "Beecker Stra\u00dfe 51",
      "city": "Duisburg",
      "country": "DEU",
      "operator": "E.ON Drive",
      "power": 400.0,
      "hdv": "N1"
    },
    {
      "lat": 48.83886695,
      "lon": 12.11948355,
      "name": "Aral pulse Dieselstra\u00dfe 16",
      "street": "Dieselstra\u00dfe 16",
      "city": "Schierling",
      "country": "DEU",
      "operator": "Aral Pulse",
      "power": 300.0,
      "hdv": "N1&N2&N3&N3+O4"
    },
    {
      "lat": 48.14553162,
      "lon": 11.79094801,
      "name": "IONITY Parsdorf",
      "street": "Von-Myra-Stra\u00dfe 6",
      "city": "Vaterstetten",
      "country": "DEU",
      "operator": "IONITY",
      "power": 400.0,
      "hdv": "N1"
    },
    {
      "lat": 43.62258967,
      "lon": 3.43807014,
      "name": "IONITY Clermont l'H\u00e9rault",
      "street": "Chemin de la Madeleine",
      "city": "Clermont-l'H\u00e9rault",
      "country": "FRA",
      "operator": "IONITY",
      "power": 400.0,
      "hdv": "N1"
    },
    {
      "lat": 51.57612021,
      "lon": 7.67039646,
      "name": "IONITY Kamen",
      "street": "Zollpost 10",
      "city": "Kamen",
      "country": "DEU",
      "operator": "IONITY",
      "power": 400.0,
      "hdv": "N1"
    },
    {
      "lat": 57.31457066,
      "lon": 14.57735042,
      "name": "Stockarydsterminalen 1.1",
      "street": "Terminalv\u00e4gen 7",
      "city": "Stockaryd",
      "country": "SWE",
      "operator": "E.ON Drive",
      "power": 400.0,
      "hdv": "N1&N2&N3&N3+O4"
    },
    {
      "lat": 53.51304813,
      "lon": 9.91636943,
      "name": "LKW Parkplatz Hafen, Altenwerder Hauptdeich, 21129 Hamburg",
      "street": "Altenwerder Hauptdeich",
      "city": "Hamburg",
      "country": "DEU",
      "operator": "E.ON Drive",
      "power": 400.0,
      "hdv": "N1&N2&N3&N3+O4"
    },
    {
      "lat": 60.63152861,
      "lon": 11.30154661,
      "name": "IONITY Innlandsporten",
      "street": "Kolomoen 916",
      "city": "Tangen",
      "country": "NOR",
      "operator": "IONITY",
      "power": 400.0,
      "hdv": "N1&N2&N3&N3+O4"
    },
    {
      "lat": 51.15370479,
      "lon": 13.11859166,
      "name": "IONITY D\u00f6beln",
      "street": "Heiterer Blick",
      "city": "Gro\u00dfweitzschen",
      "country": "DEU",
      "operator": "IONITY",
      "power": 400.0,
      "hdv": "N1"
    },
    {
      "lat": 49.73077886,
      "lon": 7.39424631,
      "name": "EnBW GLOBUS Warenhaus Idar-Oberstein",
      "street": "Zwischen Wasser 13",
      "city": "Idar-Oberstein",
      "country": "DEU",
      "operator": "EnBW",
      "power": 400.0,
      "hdv": "N1"
    },
    {
      "lat": 50.15943452,
      "lon": 7.58719626,
      "name": "EnBW A61 AS42 B\u00e4ckerei Dhein, 56281 D\u00f6rth, Trinkbornstra\u00dfe",
      "street": "Trinkbornstra\u00dfe 12",
      "city": "D\u00f6rth",
      "country": "DEU",
      "operator": "EnBW",
      "power": 400.0,
      "hdv": "N1"
    },
    {
      "lat": 55.63475384,
      "lon": 12.25577084,
      "name": "H\u00f8je Taastrup Transportcenter",
      "street": "Letland Alle",
      "city": "Taastrup",
      "country": "DNK",
      "operator": "E.ON Drive",
      "power": 400.0,
      "hdv": "N1&N2&N3&N3+O4"
    },
    {
      "lat": 52.19288897,
      "lon": 8.63105612,
      "name": "EnBW PENNY Kirchlengern, Elsestra\u00dfe",
      "street": "Elsestra\u00dfe 71",
      "city": "Kirchlengern",
      "country": "DEU",
      "operator": "EnBW",
      "power": 400.0,
      "hdv": "N1"
    },
    {
      "lat": 54.91913122,
      "lon": -1.43316523,
      "name": "IONITY Sunderland",
      "street": "Wessington Way",
      "city": "Sunderland",
      "country": "GBR",
      "operator": "IONITY",
      "power": 400.0,
      "hdv": "N1"
    },
    {
      "lat": 52.32006815,
      "lon": 13.59465272,
      "name": "MAN, Gewerbepark Wildau, 15745 Berlin/Wildau",
      "street": "Gewerbepark",
      "city": "Wildau",
      "country": "DEU",
      "operator": "E.ON Drive",
      "power": 260.0,
      "hdv": "N1&N2&N3&N3+O4"
    },
    {
      "lat": 54.82869578,
      "lon": 9.34689296,
      "name": "Toldbodvej 8",
      "street": "Toldbodvej 8B",
      "city": "Padborg",
      "country": "DNK",
      "operator": "E.ON Drive",
      "power": 400.0,
      "hdv": "N1&N2&N3&N3+O4"
    },
    {
      "lat": 49.15780389,
      "lon": 11.04086193,
      "name": "Aral pulse Zeppelinstra\u00dfe 2",
      "street": "Zeppelinstra\u00dfe 2",
      "city": "R\u00f6ttenbach",
      "country": "DEU",
      "operator": "Aral Pulse",
      "power": 300.0,
      "hdv": "N1&N2&N3&N3+O4"
    },
    {
      "lat": 47.7752163,
      "lon": 9.18612419,
      "name": "IONITY \u00dcberlingen",
      "street": "Abigstra\u00dfe 3",
      "city": "\u00dcberlingen",
      "country": "DEU",
      "operator": "IONITY",
      "power": 400.0,
      "hdv": "N1"
    },
    {
      "lat": 57.16718827,
      "lon": 12.27406513,
      "name": "Milence Charging Hub Varberg",
      "street": "Pollengatan 8",
      "city": "Varberg",
      "country": "SWE",
      "operator": "Milence",
      "power": 400.0,
      "hdv": "N3+O4&N3"
    },
    {
      "lat": 55.34963872,
      "lon": 11.12232439,
      "name": "Cafeteria Storeb\u00e6lt",
      "street": "Storeb\u00e6ltsvej 50",
      "city": "Kors\u00f8r",
      "country": "DNK",
      "operator": "E.ON Drive",
      "power": 400.0,
      "hdv": "N1&N2&N3&N3+O4"
    },
    {
      "lat": 49.38326135,
      "lon": 11.34299806,
      "name": "IONITY Altdorf bei N\u00fcrnberg",
      "street": "N\u00fcrnberger Stra\u00dfe",
      "city": "Altdorf bei N\u00fcrnberg",
      "country": "DEU",
      "operator": "IONITY",
      "power": 400.0,
      "hdv": "N1"
    },
    {
      "lat": 49.19878087,
      "lon": 9.47397404,
      "name": "EnBW A6 AS40 \u00d6hringen, 74613 \u00d6hringen, Im Fl\u00fcrle 3",
      "street": "Im Fl\u00fcrle 1",
      "city": "\u00d6hringen",
      "country": "DEU",
      "operator": "EnBW",
      "power": 400.0,
      "hdv": "N1"
    },
    {
      "lat": 48.22530639,
      "lon": 11.48022129,
      "name": "MAN, Dr.-Ernst-Zimmermann-Allee 5, 85757 M\u00fcnchen/Karlsfeld",
      "street": "Dr.-Ernst-Zimmermann-Allee 5",
      "city": "Karlsfeld",
      "country": "DEU",
      "operator": "E.ON Drive",
      "power": 400.0,
      "hdv": "N1&N2&N3&N3+O4"
    },
    {
      "lat": 49.91387896,
      "lon": 10.86607014,
      "name": "IONITY Hallstadt",
      "street": "Heganger 26",
      "city": "Bamberg",
      "country": "DEU",
      "operator": "IONITY",
      "power": 400.0,
      "hdv": "N1"
    },
    {
      "lat": 58.34147556,
      "lon": 8.57031238,
      "name": "IONITY Grimstad",
      "street": "Gartnerimyra 7",
      "city": "Grimstad",
      "country": "NOR",
      "operator": "IONITY",
      "power": 400.0,
      "hdv": "N1"
    },
    {
      "lat": 52.28829238,
      "lon": 12.46491798,
      "name": "EnBW 14778 Wollin, Im Gewerbegebiet 2",
      "street": "Im Gewerbegebiet 2",
      "city": "Wollin",
      "country": "DEU",
      "operator": "EnBW",
      "power": 400.0,
      "hdv": "N1"
    },
    {
      "lat": 53.03215924,
      "lon": 8.65478285,
      "name": "IONITY Delmenhorst",
      "street": "Niedersachsendamm 2",
      "city": "Delmenhorst",
      "country": "DEU",
      "operator": "IONITY",
      "power": 400.0,
      "hdv": "N1"
    },
    {
      "lat": 47.44876985,
      "lon": 12.32424531,
      "name": "Shell Kirchberg in Tirol",
      "street": "Kitzb\u00fcheler Stra\u00dfe 73",
      "city": "Kirchberg in Tirol",
      "country": "AUT",
      "operator": "Shell Recharge",
      "power": 400.0,
      "hdv": ""
    },
    {
      "lat": 51.18002011,
      "lon": 6.39418425,
      "name": "Aral pulse Gigahub M\u00f6nchengladbach",
      "street": "Belgrader Stra\u00dfe 2",
      "city": "M\u00f6nchengladbach",
      "country": "DEU",
      "operator": "Aral Pulse",
      "power": 400.0,
      "hdv": "N1"
    },
    {
      "lat": 40.55215424,
      "lon": -7.24878385,
      "name": "IONITY Guarda",
      "street": "Largo de S\u00e3o Miguel 13",
      "city": "Guarda",
      "country": "PRT",
      "operator": "IONITY",
      "power": 400.0,
      "hdv": "N1"
    },
    {
      "lat": 50.99268477,
      "lon": 7.45975182,
      "name": "EnBW REWE Engelskirchen-R\u00fcnderoth, H\u00fcttenstra\u00dfe",
      "street": "H\u00fcttenstra\u00dfe 9",
      "city": "Engelskirchen",
      "country": "DEU",
      "operator": "EnBW",
      "power": 400.0,
      "hdv": "N1"
    },
    {
      "lat": 51.98973382,
      "lon": 8.79148855,
      "name": "EnBW REWE Lage, Lange Stra\u00dfe 58-62",
      "street": "Lange Stra\u00dfe 58",
      "city": "Lage",
      "country": "DEU",
      "operator": "EnBW",
      "power": 400.0,
      "hdv": "N1"
    },
    {
      "lat": 49.21086295,
      "lon": 9.06966673,
      "name": "Aral pulse Wilhelm-Hauff-Stra\u00dfe 43",
      "street": "Wilhelm-Hauff-Stra\u00dfe 43",
      "city": "Bad Rappenau",
      "country": "DEU",
      "operator": "Aral Pulse",
      "power": 300.0,
      "hdv": "N1&N2&N3&N3+O4"
    },
    {
      "lat": 68.41978887,
      "lon": 27.40814921,
      "name": "IONITY Saariselk\u00e4",
      "street": "Saarisel\u00e4ntie 1",
      "city": "Inari",
      "country": "FIN",
      "operator": "IONITY",
      "power": 400.0,
      "hdv": "N1"
    },
    {
      "lat": 68.704916,
      "lon": 15.41496803,
      "name": "IONITY Sortland",
      "street": "Havnegata 44",
      "city": "Sortland",
      "country": "NOR",
      "operator": "IONITY",
      "power": 400.0,
      "hdv": "N1"
    },
    {
      "lat": 50.85874383,
      "lon": 5.50136443,
      "name": "IONITY Bilzen",
      "street": "Tongersestraat 104",
      "city": "Bilzen-Hoeselt",
      "country": "BEL",
      "operator": "IONITY",
      "power": 400.0,
      "hdv": "N1"
    },
    {
      "lat": 50.34344653,
      "lon": 9.52565272,
      "name": "Aral pulse Hanauer Stra\u00dfe 8",
      "street": "Hanauer Stra\u00dfe 8",
      "city": "Schl\u00fcchtern",
      "country": "DEU",
      "operator": "Aral Pulse",
      "power": 400.0,
      "hdv": ""
    },
    {
      "lat": 50.73740949,
      "lon": 9.2450301,
      "name": "IONITY Alsfeld",
      "street": "Dirsr\u00f6der Feld 2",
      "city": "Alsfeld",
      "country": "DEU",
      "operator": "IONITY",
      "power": 400.0,
      "hdv": "N1"
    },
    {
      "lat": 61.00570879,
      "lon": 14.54358865,
      "name": "IONITY Mora",
      "street": "Strandgatan 8",
      "city": "Mora",
      "country": "SWE",
      "operator": "IONITY",
      "power": 400.0,
      "hdv": "N1"
    },
    {
      "lat": 48.74745854,
      "lon": 1.34289696,
      "name": "IONITY Dreux",
      "street": "8 Rue Ren\u00e9 Miet",
      "city": "Dreux",
      "country": "FRA",
      "operator": "IONITY",
      "power": 400.0,
      "hdv": "N1"
    },
    {
      "lat": 53.43004813,
      "lon": 9.93591098,
      "name": "EnBW A7 AS34 HH-Marmstorf, 21077 Hamburg, Maldfeldstra\u00dfe 2",
      "street": "Maldfeldstra\u00dfe 2",
      "city": "Hamburg",
      "country": "DEU",
      "operator": "EnBW",
      "power": 400.0,
      "hdv": ""
    },
    {
      "lat": 52.84883092,
      "lon": 9.55648255,
      "name": "EnBW A27 AS27 Walsrode-West, 29664 Walsrode, Gro\u00dfe Schneede 5",
      "street": "Gro\u00dfe Schneede 5",
      "city": "Walsrode",
      "country": "DEU",
      "operator": "EnBW",
      "power": 400.0,
      "hdv": ""
    },
    {
      "lat": 51.29607216,
      "lon": 0.51092999,
      "name": "IONITY Maidstone VH",
      "street": "Forstal Road",
      "city": "Maidstone",
      "country": "GBR",
      "operator": "IONITY",
      "power": 400.0,
      "hdv": "N1"
    },
    {
      "lat": 52.01157366,
      "lon": 4.38028335,
      "name": "IONITY Delft",
      "street": "Olof Palmestraat 2",
      "city": "Delft",
      "country": "NLD",
      "operator": "IONITY",
      "power": 400.0,
      "hdv": "N1"
    },
    {
      "lat": 51.68706115,
      "lon": 3.73320527,
      "name": "IONITY Burgh-Haamstede",
      "street": "Daleboutsweg 9",
      "city": "Burgh-Haamstede",
      "country": "NLD",
      "operator": "IONITY",
      "power": 400.0,
      "hdv": "N1"
    },
    {
      "lat": 52.31312121,
      "lon": 10.63561568,
      "name": "EnBW A2 AS57 Braunschweig-Ost, 38165 Lehre, In den Lohbalken 1",
      "street": "In den Lohbalken 1",
      "city": "Lehre",
      "country": "DEU",
      "operator": "EnBW",
      "power": 400.0,
      "hdv": ""
    },
    {
      "lat": 49.15766275,
      "lon": 16.59720327,
      "name": "E.ON OC Futurum (HUB)",
      "street": "Doln\u00ed Her\u0161pice ev. \u010d. 24",
      "city": "Brno",
      "country": "CZE",
      "operator": "E.ON Drive",
      "power": 400.0,
      "hdv": "N1"
    },
    {
      "lat": 51.84819028,
      "lon": 12.34236443,
      "name": "Milence Charging Hub Vockerode",
      "street": "Walderseeer Stra\u00dfe",
      "city": "Oranienbaum-W\u00f6rlitz",
      "country": "DEU",
      "operator": "Milence",
      "power": 400.0,
      "hdv": "N3&N3+O4"
    },
    {
      "lat": 50.89550559,
      "lon": 11.98096703,
      "name": "Milence Charging Hub Hermsdorfer Kreuz",
      "street": "Am R\u00fcdersdorfer Weg 5",
      "city": "Kraftsdorf",
      "country": "DEU",
      "operator": "Milence",
      "power": 400.0,
      "hdv": "N3+O4&N3"
    },
    {
      "lat": 51.47386595,
      "lon": -2.56462169,
      "name": "IONITY Bristol M32",
      "street": "Eastgate Road",
      "city": "Bristol",
      "country": "GBR",
      "operator": "IONITY",
      "power": 400.0,
      "hdv": "N1"
    },
    {
      "lat": 49.8401172,
      "lon": 8.14172079,
      "name": "IONITY W\u00f6rrstadt",
      "street": "Sophie-Opel-Stra\u00dfe 4",
      "city": "W\u00f6rrstadt",
      "country": "DEU",
      "operator": "IONITY",
      "power": 400.0,
      "hdv": "N1"
    },
    {
      "lat": 52.17537046,
      "lon": 11.49160967,
      "name": "EnBW A2 AS67 Irxleben, 39326 Hohe B\u00f6rde, Amselweg",
      "street": "Amselweg",
      "city": "Hohe B\u00f6rde",
      "country": "DEU",
      "operator": "EnBW",
      "power": 400.0,
      "hdv": ""
    },
    {
      "lat": 51.28754063,
      "lon": 4.38761068,
      "name": "Milence Charging Hub Antwerp Goordijk",
      "street": "Noorderlaan 626",
      "city": "Haven",
      "country": "BEL",
      "operator": "Milence",
      "power": 400.0,
      "hdv": "N3+O4&N3"
    },
    {
      "lat": 47.64236945,
      "lon": 6.9137378,
      "name": "IONITY Bessoncourt",
      "street": "E54",
      "city": "Bessoncourt",
      "country": "FRA",
      "operator": "IONITY",
      "power": 400.0,
      "hdv": "N1"
    },
    {
      "lat": 47.81539448,
      "lon": 12.36662669,
      "name": "IONITY Bernau am Chiemsee",
      "street": "Theodor-Sanne-Stra\u00dfe 3",
      "city": "Bernau a. Chiemsee",
      "country": "DEU",
      "operator": "IONITY",
      "power": 400.0,
      "hdv": "N1"
    },
    {
      "lat": 70.05153462,
      "lon": 24.96292299,
      "name": "IONITY Lakselv",
      "street": "Arne M Holdens vei 5",
      "city": "Lakselv",
      "country": "NOR",
      "operator": "IONITY",
      "power": 400.0,
      "hdv": "N1"
    },
    {
      "lat": 57.68246055,
      "lon": 12.30392099,
      "name": "Milence Charging Hub Landvetter",
      "street": "Logistikv\u00e4gen 13",
      "city": "Landvetter",
      "country": "SWE",
      "operator": "Milence",
      "power": 400.0,
      "hdv": "N3+O4&N3"
    },
    {
      "lat": 51.48416325,
      "lon": 6.54807814,
      "name": "IONITY Kamp-Lintfort",
      "street": "Friedrich-Heinrich-Allee 182",
      "city": "Kamp-Lintfort",
      "country": "DEU",
      "operator": "IONITY",
      "power": 400.0,
      "hdv": "N1"
    },
    {
      "lat": 42.68023032,
      "lon": 2.85871078,
      "name": "Milence Charging Hub Perpignan",
      "street": "2555 Avenue Julien Panchot",
      "city": "Perpignan",
      "country": "FRA",
      "operator": "Milence",
      "power": 400.0,
      "hdv": "N3+O4&N3"
    },
    {
      "lat": 50.9751102,
      "lon": 5.04164271,
      "name": "IONITY Diest",
      "street": "Leuvensesteenweg 108",
      "city": "Diest",
      "country": "BEL",
      "operator": "IONITY",
      "power": 400.0,
      "hdv": "N1"
    },
    {
      "lat": 54.79408417,
      "lon": 9.37976883,
      "name": "Fleggaard, Industrieweg 27, 24955 Harrislee",
      "street": "Industrieweg 27",
      "city": "Harrislee",
      "country": "DEU",
      "operator": "E.ON Drive",
      "power": 400.0,
      "hdv": "N1"
    },
    {
      "lat": 65.86456265,
      "lon": 13.19557064,
      "name": "IONITY Mosj\u00f8en",
      "street": "Kulstadbakken 13",
      "city": "Mosj\u00f8en",
      "country": "NOR",
      "operator": "IONITY",
      "power": 400.0,
      "hdv": "N1"
    },
    {
      "lat": 44.14939748,
      "lon": 1.52514721,
      "name": "IONITY Caussade",
      "street": "Impasse de Grimal",
      "city": "Caussade",
      "country": "FRA",
      "operator": "IONITY",
      "power": 400.0,
      "hdv": "N1"
    },
    {
      "lat": 53.46519028,
      "lon": -2.08985792,
      "name": "IONITY Manchester Hyde VH",
      "street": "Captain Clarke Road",
      "city": "Hyde",
      "country": "GBR",
      "operator": "IONITY",
      "power": 400.0,
      "hdv": "N1"
    },
    {
      "lat": 49.67230139,
      "lon": 8.59546653,
      "name": "EnBW A5 AS30 Bensheim, 64625 Bensheim, Amperestra\u00dfe",
      "street": "Amp\u00e8restra\u00dfe 4",
      "city": "Bensheim",
      "country": "DEU",
      "operator": "EnBW",
      "power": 400.0,
      "hdv": ""
    },
    {
      "lat": 49.93717126,
      "lon": 12.22162269,
      "name": "EnBW A93 AS17 Mitterteich",
      "street": "Ludwig-Erhard-Stra\u00dfe 2a",
      "city": "Mitterteich",
      "country": "DEU",
      "operator": "EnBW",
      "power": 400.0,
      "hdv": ""
    },
    {
      "lat": 50.20223232,
      "lon": 11.77986993,
      "name": "EnBW A9 AS35 M\u00fcnchberg-Nord, 95213 M\u00fcnchberg, August-Horch-Str. 6-8",
      "street": "August-Horch-Stra\u00dfe 6",
      "city": "M\u00fcnchberg",
      "country": "DEU",
      "operator": "EnBW",
      "power": 400.0,
      "hdv": ""
    },
    {
      "lat": 49.51753062,
      "lon": 5.75344351,
      "name": "IONITY Longwy",
      "street": "Rue du Pulventeux",
      "city": "Longwy",
      "country": "FRA",
      "operator": "IONITY",
      "power": 400.0,
      "hdv": "N1"
    },
    {
      "lat": 51.01295204,
      "lon": 10.98795202,
      "name": "IONITY Erfurt",
      "street": "Demminer Stra\u00dfe 10",
      "city": "Erfurt",
      "country": "DEU",
      "operator": "IONITY",
      "power": 400.0,
      "hdv": "N1"
    },
    {
      "lat": 49.1401172,
      "lon": 8.55834041,
      "name": "IONITY Bruchsal-Karlsdorf",
      "street": "Molzaustra\u00dfe",
      "city": "Bruchsal",
      "country": "DEU",
      "operator": "IONITY",
      "power": 400.0,
      "hdv": "N1"
    },
    {
      "lat": 46.17986495,
      "lon": 6.23366973,
      "name": "IONITY Etrembieres",
      "street": "21 Rue de l'Industrie",
      "city": "\u00c9trembi\u00e8res",
      "country": "FRA",
      "operator": "IONITY",
      "power": 400.0,
      "hdv": "N1"
    },
    {
      "lat": 49.65804513,
      "lon": 15.12052059,
      "name": "IONITY \u010cechtice",
      "street": "Loket 66",
      "city": "Loket",
      "country": "CZE",
      "operator": "IONITY",
      "power": 400.0,
      "hdv": "N1"
    },
    {
      "lat": 52.30474983,
      "lon": 7.955938,
      "name": "EnBW A1 AS71 Osnabr\u00fcck-Hafen, 49076 Osnabr\u00fcck, Benzstra\u00dfe 9",
      "street": "Benzstra\u00dfe 9",
      "city": "Osnabr\u00fcck",
      "country": "DEU",
      "operator": "EnBW",
      "power": 400.0,
      "hdv": ""
    },
    {
      "lat": 58.23205014,
      "lon": 14.67776083,
      "name": "Milence Charging Hub \u00d6desh\u00f6g",
      "street": "Liev\u00e4gen 9",
      "city": "\u00d6desh\u00f6g",
      "country": "SWE",
      "operator": "Milence",
      "power": 400.0,
      "hdv": "N3+O4&N3"
    },
    {
      "lat": 53.81323332,
      "lon": -3.01197804,
      "name": "IONITY Blackpool VH",
      "street": "East Park Drive",
      "city": "Blackpool",
      "country": "GBR",
      "operator": "IONITY",
      "power": 400.0,
      "hdv": "N1"
    },
    {
      "lat": 46.26430939,
      "lon": 16.37938445,
      "name": "IONITY Vara\u017edin",
      "street": "Ulica grada Lipika 15",
      "city": "Gornji Kneginec",
      "country": "HRV",
      "operator": "IONITY",
      "power": 400.0,
      "hdv": "N1"
    },
    {
      "lat": 52.8946147,
      "lon": 9.76859766,
      "name": "EnBW A7 AS46 Dorfmark",
      "street": "Klaus-Seckel-Stra\u00dfe 4",
      "city": "Bad Fallingbostel",
      "country": "DEU",
      "operator": "EnBW",
      "power": 400.0,
      "hdv": ""
    },
    {
      "lat": 48.78263572,
      "lon": 11.47862669,
      "name": "EnBW A9 AS61 Ingolstadt-Nord, 85055 Ingolstadt-Oberhaunstadt",
      "street": "Isaak-Newton-Stra\u00dfe 3",
      "city": "Ingolstadt",
      "country": "DEU",
      "operator": "EnBW",
      "power": 400.0,
      "hdv": ""
    },
    {
      "lat": 56.12339648,
      "lon": 12.91079186,
      "name": "Milence Charging Hub \u00c5storp",
      "street": "Bronsgatan 12",
      "city": "\u00c5storp",
      "country": "SWE",
      "operator": "Milence",
      "power": 400.0,
      "hdv": "N3+O4&N3"
    },
    {
      "lat": 53.51857466,
      "lon": 10.02182189,
      "name": "Shell Recharge Georgswerder Bogen 12",
      "street": "Georgswerder Bogen 12",
      "city": "Hamburg",
      "country": "DEU",
      "operator": "Shell Recharge",
      "power": 360.0,
      "hdv": "N1&N2&N3&N3+O4"
    },
    {
      "lat": 48.05909018,
      "lon": 18.96087394,
      "name": "ZSE LV Slovnaft \u0160ahy Ultra 2",
      "street": "Hontianska cesta 1316/88",
      "city": "\u0160ahy",
      "country": "SVK",
      "operator": "E.ON Drive",
      "power": 400.0,
      "hdv": "N1"
    },
    {
      "lat": 51.45309718,
      "lon": 0.24667774,
      "name": "IONITY Dartford M25",
      "street": "2 Masthead Close",
      "city": "Greenhithe",
      "country": "GBR",
      "operator": "IONITY",
      "power": 400.0,
      "hdv": "N1"
    },
    {
      "lat": 52.33786995,
      "lon": 14.0678349,
      "name": "MAN, Autofocus 4, 15517 F\u00fcrstenwalde",
      "street": "Auto-Focus 4",
      "city": "F\u00fcrstenwalde/Spree",
      "country": "DEU",
      "operator": "E.ON Drive",
      "power": 400.0,
      "hdv": "N1"
    },
    {
      "lat": 50.29718927,
      "lon": 10.4712363,
      "name": "REWE, Bamberger Stra\u00dfe 11, 97631 Bad K\u00f6nigshofen",
      "street": "Bamberger Stra\u00dfe 11",
      "city": "Bad K\u00f6nigshofen i. Grabfeld",
      "country": "DEU",
      "operator": "E.ON Drive",
      "power": 400.0,
      "hdv": "N1"
    },
    {
      "lat": 52.33520629,
      "lon": 10.18386293,
      "name": "EnBW PENNY Peine, Herrenfeldstra\u00dfe",
      "street": "Herrenfeldstra\u00dfe 41",
      "city": "Peine",
      "country": "DEU",
      "operator": "EnBW",
      "power": 400.0,
      "hdv": ""
    },
    {
      "lat": 51.31083692,
      "lon": 6.20485492,
      "name": "Aral pulse K\u00f6lner Stra\u00dfe 70",
      "street": "K\u00f6lner Stra\u00dfe 70",
      "city": "Nettetal",
      "country": "DEU",
      "operator": "Aral Pulse",
      "power": 400.0,
      "hdv": ""
    },
    {
      "lat": 45.09047056,
      "lon": 10.85882089,
      "name": "Milence Charging Hub Bagnolo San Vito",
      "street": "Via Marco Biagi",
      "city": "Bagnolo San Vito",
      "country": "ITA",
      "operator": "Milence",
      "power": 400.0,
      "hdv": "N3+O4&N3"
    },
    {
      "lat": 44.46983092,
      "lon": 4.76278185,
      "name": "Milence Charging Hub Malataverne",
      "street": "Chemin des Plaines",
      "city": "Malataverne",
      "country": "FRA",
      "operator": "Milence",
      "power": 400.0,
      "hdv": "N3+O4&N3"
    },
    {
      "lat": 51.18824033,
      "lon": 11.98912519,
      "name": "Aral pulse Nikolaus-Otto-Stra\u00dfe 1",
      "street": "Nikolaus-Otto-Stra\u00dfe 1",
      "city": "Wei\u00dfenfels",
      "country": "DEU",
      "operator": "Aral Pulse",
      "power": 400.0,
      "hdv": ""
    },
    {
      "lat": 49.38214223,
      "lon": 10.18866073,
      "name": "Laiblestra\u00dfe 26, 91541 Rothenburg ob der Tauber",
      "street": "Laiblestra\u00dfe 26",
      "city": "Rothenburg ob der Tauber",
      "country": "DEU",
      "operator": "E.ON Drive",
      "power": 400.0,
      "hdv": "N1"
    },
    {
      "lat": 51.52282491,
      "lon": -2.56996103,
      "name": "IONITY Bristol VH",
      "street": "Bullfinch Close",
      "city": "Bristol",
      "country": "GBR",
      "operator": "IONITY",
      "power": 400.0,
      "hdv": "N1"
    },
    {
      "lat": 47.8415136,
      "lon": 12.1253304,
      "name": "EnBW 83026 Rosenheim, Isarstra\u00dfe 2",
      "street": "Isarstra\u00dfe 2",
      "city": "Rosenheim",
      "country": "DEU",
      "operator": "EnBW",
      "power": 400.0,
      "hdv": ""
    },
    {
      "lat": 47.84144453,
      "lon": 12.12534641,
      "name": "EnBW charging station 13390",
      "street": "Isarstra\u00dfe 2",
      "city": "Rosenheim",
      "country": "DEU",
      "operator": "EnBW",
      "power": 400.0,
      "hdv": ""
    },
    {
      "lat": 50.59542451,
      "lon": 15.13258565,
      "name": "IONITY Turnov",
      "street": "Pr\u016fmyslov\u00e1 3002",
      "city": "Turnov",
      "country": "CZE",
      "operator": "IONITY",
      "power": 400.0,
      "hdv": "N1"
    },
    {
      "lat": 51.62097806,
      "lon": -3.92137644,
      "name": "IONITY Swansea VH",
      "street": "Langdon Road",
      "city": "Swansea",
      "country": "GBR",
      "operator": "IONITY",
      "power": 400.0,
      "hdv": "N1"
    },
    {
      "lat": 48.68962071,
      "lon": 6.01522029,
      "name": "Milence Charging Hub Gondreville",
      "street": "36 Rue de Toul",
      "city": "Bois-de-Haye",
      "country": "FRA",
      "operator": "Milence",
      "power": 400.0,
      "hdv": "N3+O4&N3"
    },
    {
      "lat": 43.29653862,
      "lon": 3.2177348,
      "name": "Milence Charging Hub B\u00e9ziers",
      "street": "3B Avenue d'Amsterdam",
      "city": "Vendres",
      "country": "FRA",
      "operator": "Milence",
      "power": 400.0,
      "hdv": "N3+O4&N3"
    },
    {
      "lat": 53.64780989,
      "lon": -0.24032939,
      "name": "Milence Charging Hub Immingham",
      "street": "Rosper Road",
      "city": "Immingham",
      "country": "GBR",
      "operator": "Milence",
      "power": 400.0,
      "hdv": "N3+O4&N3"
    },
    {
      "lat": 48.38604813,
      "lon": 8.71999206,
      "name": "EnBW A81 AS31 Empfingen, Im Auchtert 10, 72186 Empfingen, B\u00fcrgermeisteramt Empfingen",
      "street": "Im Auchtert 10",
      "city": "Empfingen",
      "country": "DEU",
      "operator": "EnBW",
      "power": 400.0,
      "hdv": ""
    },
    {
      "lat": 48.59500009,
      "lon": 10.83890097,
      "name": "EnBW REWE Nordendorf, Von-Stetten-Stra\u00dfe",
      "street": "Von-Stetten-Stra\u00dfe 2",
      "city": "Nordendorf",
      "country": "DEU",
      "operator": "EnBW",
      "power": 400.0,
      "hdv": ""
    },
    {
      "lat": 51.48830039,
      "lon": 9.00570077,
      "name": "EnBW A44 AS64 Diemelstadt, 34474 Diemelstadt, Wrexer Teich 3",
      "street": "Wrexer Teich 3",
      "city": "Diemelstadt",
      "country": "DEU",
      "operator": "EnBW",
      "power": 400.0,
      "hdv": ""
    },
    {
      "lat": 48.87296905,
      "lon": 8.82534741,
      "name": "EnBW REWE Wurmberg, Wiernsheimer Stra\u00dfe",
      "street": "Wiernsheimer Stra\u00dfe 42",
      "city": "Wurmberg",
      "country": "DEU",
      "operator": "EnBW",
      "power": 400.0,
      "hdv": ""
    },
    {
      "lat": 52.20289098,
      "lon": 9.91590097,
      "name": "EnBW REWE Giesen-Hasede, Vor dem Kampe 1",
      "street": "Vor dem Kampe 1",
      "city": "Giesen",
      "country": "DEU",
      "operator": "EnBW",
      "power": 400.0,
      "hdv": ""
    },
    {
      "lat": 48.76690799,
      "lon": 13.04348955,
      "name": "EnBW A3 AS111 Hengersberg, N\u00e4he Donaustra\u00dfe",
      "street": "Donaustra\u00dfe",
      "city": "Hengersberg",
      "country": "DEU",
      "operator": "EnBW",
      "power": 400.0,
      "hdv": ""
    },
    {
      "lat": 48.2536187,
      "lon": 10.35560267,
      "name": "Parkplatz H\u00f6llgehau 2 / Bahnhofstr., 86381 Krumbach (Schwaben)",
      "street": "H\u00f6llgehau 2",
      "city": "Krumbach (Schwaben)",
      "country": "DEU",
      "operator": "E.ON Drive",
      "power": 400.0,
      "hdv": "N1"
    },
    {
      "lat": 51.91017826,
      "lon": 8.60841948,
      "name": "EnBW PENNY Schloss Holte-Stukenbrock, Sender Stra\u00dfe",
      "street": "Sender Stra\u00dfe 8",
      "city": "Schlo\u00df Holte-Stukenbrock",
      "country": "DEU",
      "operator": "EnBW",
      "power": 400.0,
      "hdv": ""
    },
    {
      "lat": 49.23982091,
      "lon": 4.08658065,
      "name": "Milence Charging Hub Reims",
      "street": "Rue Michel Coiffard",
      "city": "Reims",
      "country": "FRA",
      "operator": "Milence",
      "power": 400.0,
      "hdv": "N3+O4&N3"
    },
    {
      "lat": 50.57782291,
      "lon": 8.634938,
      "name": "Heuchelheim, Ludwig-Rinn-Strasse HYC",
      "street": "Ludwig-Rinn-Stra\u00dfe 62",
      "city": "Heuchelheim an der Lahn",
      "country": "DEU",
      "operator": "E.ON Drive",
      "power": 400.0,
      "hdv": "N1"
    },
    {
      "lat": 44.82615224,
      "lon": 10.20894201,
      "name": "Trattoria Emiliana_ 43010 Ponte Taro (PR)",
      "street": "Via Emilia 25",
      "city": "Fontevivo",
      "country": "ITA",
      "operator": "E.ON Drive",
      "power": 400.0,
      "hdv": "N1"
    },
    {
      "lat": 49.67288397,
      "lon": 8.59709016,
      "name": "Aral pulse Amp\u00e8restra\u00dfe 1",
      "street": "Amp\u00e8restra\u00dfe 1",
      "city": "Bensheim",
      "country": "DEU",
      "operator": "Aral Pulse",
      "power": 300.0,
      "hdv": "N3&N3+O4"
    },
    {
      "lat": 49.31146155,
      "lon": 11.00205712,
      "name": "Aral pulse An der Autobahn 1 Kammerstein",
      "street": "An der Autobahn 1",
      "city": "Kammerstein",
      "country": "DEU",
      "operator": "Aral Pulse",
      "power": 300.0,
      "hdv": "N3&N3+O4"
    },
    {
      "lat": 52.52813022,
      "lon": 6.17976083,
      "name": "Milence Charging Hub Zwolle",
      "street": "Holsteinstraat 22",
      "city": "Zwolle",
      "country": "NLD",
      "operator": "Milence",
      "power": 1200.0,
      "hdv": "N3+O4&N3"
    },
    {
      "lat": 56.90447656,
      "lon": 9.84419026,
      "name": "Neptunvej 9",
      "street": "Neptunvej 9",
      "city": "St\u00f8vring",
      "country": "DNK",
      "operator": "E.ON Drive",
      "power": 400.0,
      "hdv": "N1"
    },
    {
      "lat": 48.88330939,
      "lon": 10.17738545,
      "name": "Aral pulse Baiershofener Str. 1",
      "street": "Baiershofener Stra\u00dfe 1",
      "city": "Westhausen",
      "country": "DEU",
      "operator": "Aral Pulse",
      "power": 400.0,
      "hdv": ""
    },
    {
      "lat": 52.28953062,
      "lon": 10.56126633,
      "name": "Aral pulse Bevenroder Stra\u00dfe 24",
      "street": "Bevenroder Stra\u00dfe 24",
      "city": "Braunschweig",
      "country": "DEU",
      "operator": "Aral Pulse",
      "power": 400.0,
      "hdv": ""
    },
    {
      "lat": 49.16419028,
      "lon": -0.31859066,
      "name": "Milence Charging Hub Mondeville",
      "street": "1 Rue Fran\u00e7ois Arago",
      "city": "Mondeville",
      "country": "FRA",
      "operator": "Milence",
      "power": 400.0,
      "hdv": "N3+O4&N3"
    },
    {
      "lat": 50.58123032,
      "lon": 3.09168075,
      "name": "Milence Charging Hub Lille Lesquin",
      "street": "Impasse Jean Jaur\u00e8s",
      "city": "Vendeville",
      "country": "FRA",
      "operator": "Milence",
      "power": 400.0,
      "hdv": "N3+O4&N3"
    },
    {
      "lat": 51.35646455,
      "lon": 6.62495102,
      "name": "EnBW REWE Krefeld, Magdeburger Str. 9",
      "street": "Magdeburger Stra\u00dfe 9",
      "city": "Krefeld",
      "country": "DEU",
      "operator": "EnBW",
      "power": 400.0,
      "hdv": ""
    },
    {
      "lat": 48.03842051,
      "lon": 10.86474481,
      "name": "Aral pulse Schongauer Stra\u00dfe 7",
      "street": "Schongauer Stra\u00dfe 7",
      "city": "Landsberg am Lech",
      "country": "DEU",
      "operator": "Aral Pulse",
      "power": 400.0,
      "hdv": ""
    },
    {
      "lat": 50.08263072,
      "lon": 11.6632303,
      "name": "EnBW A9 AS38 Marktschorgast, 95509 Marktschorgast, Am Christophsb\u00fchl 4",
      "street": "Am Christophsb\u00fchl 4",
      "city": "Marktschorgast",
      "country": "DEU",
      "operator": "EnBW",
      "power": 400.0,
      "hdv": ""
    },
    {
      "lat": 54.31245754,
      "lon": -1.56909116,
      "name": "Shell Recharge Exelby Services \u2013 Coneygarth Leases Road Leem",
      "street": "Leases Road",
      "city": "Northallerton",
      "country": "GBR",
      "operator": "Shell Recharge",
      "power": 400.0,
      "hdv": ""
    },
    {
      "lat": 53.03938547,
      "lon": 8.67580287,
      "name": "EnBW Kaufland Delmenhorst",
      "street": "Reinersweg 2",
      "city": "Delmenhorst",
      "country": "DEU",
      "operator": "EnBW",
      "power": 400.0,
      "hdv": ""
    },
    {
      "lat": 51.31998407,
      "lon": 9.5467388,
      "name": "EnBW REWE Niestetal-Sandershausen, Hannoversche Stra\u00dfe 72",
      "street": "Hannoversche Stra\u00dfe 72",
      "city": "Niestetal",
      "country": "DEU",
      "operator": "EnBW",
      "power": 400.0,
      "hdv": ""
    },
    {
      "lat": 47.81552361,
      "lon": 5.22246753,
      "name": "IONITY Langres Perrogney",
      "street": "A31",
      "city": "Perrogney-les-Fontaines",
      "country": "FRA",
      "operator": "IONITY",
      "power": 400.0,
      "hdv": ""
    },
    {
      "lat": 48.81160069,
      "lon": 9.38420027,
      "name": "EnBW REWE Weinstadt-Beutelsbach, Daimlerstra\u00dfe",
      "street": "Daimlerstra\u00dfe 9",
      "city": "Weinstadt",
      "country": "DEU",
      "operator": "EnBW",
      "power": 400.0,
      "hdv": ""
    },
    {
      "lat": 57.02425534,
      "lon": 16.43214521,
      "name": "Hotell Munken M\u00f6nster\u00e5s",
      "street": "Timmernabbsv\u00e4gen 2",
      "city": "M\u00f6nster\u00e5s",
      "country": "SWE",
      "operator": "E.ON Drive",
      "power": 400.0,
      "hdv": ""
    },
    {
      "lat": 51.42266075,
      "lon": 12.22494001,
      "name": "EnBW A14 AS21 Schkeuditz, Flughafen Leipzig/Halle P11",
      "street": "Am Flughafenbahnhof",
      "city": "Schkeuditz",
      "country": "DEU",
      "operator": "EnBW",
      "power": 400.0,
      "hdv": ""
    },
    {
      "lat": 53.08500109,
      "lon": 7.38680387,
      "name": "M\u00f6bel Albers, Deverweg 18, 26871 Papenburg",
      "street": "Deverweg 18",
      "city": "Papenburg",
      "country": "DEU",
      "operator": "E.ON Drive",
      "power": 400.0,
      "hdv": ""
    },
    {
      "lat": 49.73347456,
      "lon": 11.05648155,
      "name": "Aral pulse Bamberger Stra\u00dfe 91",
      "street": "Bamberger Stra\u00dfe 91",
      "city": "Forchheim",
      "country": "DEU",
      "operator": "Aral Pulse",
      "power": 400.0,
      "hdv": ""
    },
    {
      "lat": 51.59290099,
      "lon": 7.22212019,
      "name": "Milence Charging Hub Recklinghausen",
      "street": "Blitzkuhlenstra\u00dfe 90",
      "city": "Recklinghausen",
      "country": "DEU",
      "operator": "Milence",
      "power": 400.0,
      "hdv": "N3+O4&N3"
    },
    {
      "lat": 50.99845054,
      "lon": 2.30852059,
      "name": "Milence Charging Hub Dunkirk Grande-Synthe",
      "street": "Rue Louis Blanqui",
      "city": "Grande-Synthe",
      "country": "FRA",
      "operator": "Milence",
      "power": 400.0,
      "hdv": "N3+O4&N3"
    },
    {
      "lat": 49.17509018,
      "lon": 9.96270077,
      "name": "Milence Charging Hub Kirchberg",
      "street": "Von-Humboldt-Stra\u00dfe 5",
      "city": "Kirchberg an der Jagst",
      "country": "DEU",
      "operator": "Milence",
      "power": 400.0,
      "hdv": "N3+O4&N3"
    },
    {
      "lat": 50.34975084,
      "lon": 7.50699006,
      "name": "Milence Charging Hub Koblenz",
      "street": "Im Sinderfeld 1",
      "city": "Koblenz",
      "country": "DEU",
      "operator": "Milence",
      "power": 400.0,
      "hdv": "N3+O4&N3"
    },
    {
      "lat": 53.73936745,
      "lon": -2.47832639,
      "name": "Shell Recharge GRIMSHAW PARK,",
      "street": "Grimshaw Park",
      "city": "Blackburn",
      "country": "GBR",
      "operator": "Shell Recharge",
      "power": 400.0,
      "hdv": ""
    },
    {
      "lat": 51.45910019,
      "lon": 7.08129036,
      "name": "EnBW PENNY Essen-Kray, Brembergstra\u00dfe",
      "street": "Brembergstra\u00dfe 4",
      "city": "Essen",
      "country": "DEU",
      "operator": "EnBW",
      "power": 400.0,
      "hdv": ""
    },
    {
      "lat": 41.63994003,
      "lon": -1.00797204,
      "name": "Milence Charging Hub Zaragoza",
      "street": "Calle Civitella",
      "city": "Zaragoza",
      "country": "ESP",
      "operator": "Milence",
      "power": 200.0,
      "hdv": "N3+O4&N3"
    },
    {
      "lat": 51.90960069,
      "lon": 7.39836043,
      "name": "EnBW SR135_A43_AS4 Nottuln",
      "street": "Wellstra\u00dfe 30",
      "city": "Nottuln",
      "country": "DEU",
      "operator": "EnBW",
      "power": 400.0,
      "hdv": ""
    },
    {
      "lat": 50.26980089,
      "lon": 9.37518025,
      "name": "EnBW Edeka Habig, Bad Soden-Salm\u00fcnster",
      "street": "Am Palmusacker 9",
      "city": "Bad Soden-Salm\u00fcnster",
      "country": "DEU",
      "operator": "EnBW",
      "power": 400.0,
      "hdv": ""
    },
    {
      "lat": 52.81028237,
      "lon": 9.68082989,
      "name": "Parkplatz Wolfsgrund Ost, A7",
      "street": "Wolfsgrund Ost",
      "city": "Walsrode",
      "country": "DEU",
      "operator": "E.ON Drive",
      "power": 400.0,
      "hdv": ""
    },
    {
      "lat": 50.66023832,
      "lon": 3.86547054,
      "name": "Shell Remitrans Public",
      "street": "Rue des Nerviens",
      "city": "Gellingen",
      "country": "BEL",
      "operator": "Shell Recharge",
      "power": 400.0,
      "hdv": ""
    },
    {
      "lat": 47.4617128,
      "lon": 19.04867774,
      "name": "E.ON Drive - 1117 Budapest Hengermalom 18-20",
      "street": "Hengermalom \u00fat",
      "city": "Budapest",
      "country": "HUN",
      "operator": "E.ON Drive",
      "power": 400.0,
      "hdv": ""
    },
    {
      "lat": 49.31886595,
      "lon": 17.19954961,
      "name": "E.ON Mo\u0159ice hub",
      "street": "Mo\u0159ice 433",
      "city": "Mo\u0159ice",
      "country": "CZE",
      "operator": "E.ON Drive",
      "power": 400.0,
      "hdv": ""
    },
    {
      "lat": 52.81005014,
      "lon": 9.67915922,
      "name": "Parkplatz Wolfsgrund West, A7",
      "street": "A7",
      "city": "Walsrode",
      "country": "DEU",
      "operator": "E.ON Drive",
      "power": 400.0,
      "hdv": ""
    },
    {
      "lat": 50.06217026,
      "lon": 8.25231738,
      "name": "Aral pulse Mainzer Stra\u00dfe 103",
      "street": "Mainzer Stra\u00dfe 103",
      "city": "Wiesbaden",
      "country": "DEU",
      "operator": "Aral Pulse",
      "power": 400.0,
      "hdv": ""
    },
    {
      "lat": 53.10275384,
      "lon": 8.20934241,
      "name": "EnBW REWE Oldenburg, Alter Postweg",
      "street": "Alter Postweg 125",
      "city": "Oldenburg (Oldb)",
      "country": "DEU",
      "operator": "EnBW",
      "power": 400.0,
      "hdv": ""
    },
    {
      "lat": 53.58589998,
      "lon": 9.93338345,
      "name": "Aral pulse Kieler Stra\u00dfe 314",
      "street": "Kieler Stra\u00dfe 314",
      "city": "Hamburg",
      "country": "DEU",
      "operator": "Aral Pulse",
      "power": 400.0,
      "hdv": ""
    },
    {
      "lat": 49.45463272,
      "lon": 12.41579386,
      "name": "PROFI Fachmarkt, Am Bahnhof 4, 92526 Oberviechtach",
      "street": "Am Bahnhof 4",
      "city": "Oberviechtach",
      "country": "DEU",
      "operator": "E.ON Drive",
      "power": 400.0,
      "hdv": ""
    },
    {
      "lat": 51.21387696,
      "lon": 13.73070877,
      "name": "DE | Aral 0FE54 | Radeberger Stra\u00dfe 18, 01471 Radeburg - DC #02",
      "street": "Radeberger Stra\u00dfe 18",
      "city": "Radeburg",
      "country": "DEU",
      "operator": "Aral Pulse",
      "power": 400.0,
      "hdv": ""
    }
  ]
